{"26417": {"id": 26417, "lat": 40.10989, "lng": 19.72283, "p": 1, "name": "Camping Moskato", "town": "Himare", "cat": null, "catWidth": 0, "price": "12 \u20ac", "rtg": 4.33, "rtgCount": 6, "rtgWidth": 70, "img": "//images-camping.info/CampsiteImages/175329_Thumbnail.jpg", "url": "/albanien/albanien/camping-moskato-26417", "affil": [], "prem": true, "tag": null}, "24205": {"id": 24205, "lat": 41.12635, "lng": 20.64059, "p": 1, "name": "Camping Livadista", "town": "Struga", "cat": 5, "catWidth": 80, "price": "9 \u20ac", "rtg": 2.88, "rtgCount": 8, "rtgWidth": 43, "img": "//images-camping.info/CampsiteImages/228321_Thumbnail.jpg", "url": "/mazedonien/mazedonien/camping-livadista-24205", "affil": [], "prem": true, "tag": "Bereit f\u00fcr Abenteuer? Dann ab auf den CAMPING LIVADISTA in Mazedonien!"}, "25706": {"id": 25706, "lat": 41.15466, "lng": 20.65087, "p": 1, "name": "Camping Rino", "town": "Kalista", "cat": 5, "catWidth": 80, "price": "10 \u20ac", "rtg": 4.74, "rtgCount": 31, "rtgWidth": 73, "img": "//images-camping.info/CampsiteImages/165975_Thumbnail.jpg", "url": "/mazedonien/mazedonien/camping-rino-25706", "affil": [{"url": "//images-camping.info/_generated/affiliate/campcard_dreh2017.png", "title": "Zur ADAC Campingplatz-Beschreibung mit ADAC CampCard-Preis, G\u00fcltigkeitszeiten und Vorteilsangeboten", "nofollow": "", "deeplink": "https://campingfuehrer.adac.de/campingfuehrer/mazedonien-mazedonien-camping-rino-mz320.php"}], "prem": true, "tag": "Ein sch\u00f6ner Campingplatz am Ohridsee in Mazedonien!"}, "26123": {"id": 26123, "lat": 41.16025, "lng": 20.65201, "p": 1, "name": "Camping Sunrise", "town": "Struga- Kalishta", "cat": 5, "catWidth": 80, "price": "10 \u20ac", "rtg": 4.57, "rtgCount": 7, "rtgWidth": 72, "img": "//images-camping.info/CampsiteImages/195116_Thumbnail.jpg", "url": "/mazedonien/mazedonien/camping-sunrise-26123", "affil": [], "prem": true, "tag": "Camping Sunrise - Besuchen Sie den sch\u00f6nsten Campingplatz Mazedoniens!"}, "23497": {"id": 23497, "lat": 41.18101, "lng": 19.47691, "p": 1, "name": "Kamping Pa emer", "town": "Kavaje", "cat": 4, "catWidth": 64, "price": "20 \u20ac", "rtg": 4.0, "rtgCount": 117, "rtgWidth": 64, "img": "//images-camping.info/CampsiteImages/137774_Thumbnail.jpg", "url": "/albanien/albanien/kamping-pa-emer-23497", "affil": [], "prem": true, "tag": "Direkt am Strand - ruhiger Urlaub! Nahe der touristischen St\u00e4dte Kruja & Berat"}, "26415": {"id": 26415, "lat": 41.33813, "lng": 19.70669, "p": 1, "name": "Camping Tirana (Albania)", "town": "Kashar Tirane (city park) Folgen  Rruga Limuthit", "cat": 4, "catWidth": 64, "price": "14 \u20ac", "rtg": 4.8, "rtgCount": 20, "rtgWidth": 74, "img": "//images-camping.info/CampsiteImages/232859_Thumbnail.jpg", "url": "/albanien/albanien/camping-tirana-albania-26415", "affil": [], "prem": true, "tag": "Eine Oase der Ruhe vor den Toren von Tirana"}, "25933": {"id": 25933, "lat": 41.90826, "lng": 19.25046, "p": 1, "name": "Miami Autocamp", "town": "Ulcinj", "cat": 3, "catWidth": 48, "price": "19 \u20ac", "rtg": 4.31, "rtgCount": 13, "rtgWidth": 70, "img": "//images-camping.info/CampsiteImages/134320_Thumbnail.jpg", "url": "/montenegro/montenegro/miami-autocamp-25933", "affil": [], "prem": true, "tag": "Ein Platz am Strand mit breitgef\u00e4chertem Angebot von Aktivit\u00e4ten f\u00fcr jeden!"}, "24215": {"id": 24215, "lat": 42.01028, "lng": 19.1511, "p": 1, "name": "Camping Oliva", "town": "Utjeha", "cat": 4, "catWidth": 64, "price": "15 \u20ac", "rtg": 4.58, "rtgCount": 50, "rtgWidth": 72, "img": "//images-camping.info/CampsiteImages/61505_Thumbnail.jpg", "url": "/montenegro/montenegro/camping-oliva-24215", "affil": [{"url": "//images-camping.info/_generated/affiliate/campcard_dreh2017.png", "title": "Zur ADAC Campingplatz-Beschreibung mit ADAC CampCard-Preis, G\u00fcltigkeitszeiten und Vorteilsangeboten", "nofollow": "", "deeplink": "https://campingfuehrer.adac.de/campingfuehrer/montenegro-montenegro-camping-oliva-mn180.php"}], "prem": true, "tag": "Campen im Schutz wundersch\u00f6ner, alter Olivenb\u00e4ume!"}, "26615": {"id": 26615, "lat": 42.04361, "lng": 19.4891, "p": 1, "name": "Camping Legjenda", "town": "Shkoder", "cat": 5, "catWidth": 80, "price": "17.50 \u20ac", "rtg": 4.83, "rtgCount": 12, "rtgWidth": 74, "img": "//images-camping.info/CampsiteImages/233527_Thumbnail.jpg", "url": "/albanien/albanien/camping-legjenda-26615", "affil": [], "prem": true, "tag": "A holiday immersed in the green of Shkodra"}, "25812": {"id": 25812, "lat": 42.08234, "lng": 19.14656, "p": 1, "name": "Bartula - My Olive Garden camp", "town": "Stari Bar", "cat": 3, "catWidth": 48, "price": "15 \u20ac", "rtg": 4.8, "rtgCount": 15, "rtgWidth": 74, "img": "//images-camping.info/CampsiteImages/129861_Thumbnail.jpg", "url": "/montenegro/montenegro/bartula-my-olive-garden-camp-25812", "affil": [], "prem": true, "tag": "Zur\u00fcck zur Natur - Ein sch\u00f6ner, klein gehaltener Campingplatz im Olinvenbaumhain"}, "22093": {"id": 22093, "lat": 42.198, "lng": 18.96622, "p": 1, "name": "Camping Maslina", "town": "Buljarica", "cat": 3, "catWidth": 48, "price": "19 \u20ac", "rtg": 3.85, "rtgCount": 41, "rtgWidth": 58, "img": "//images-camping.info/CampsiteImages/108502_Thumbnail.jpg", "url": "/montenegro/montenegro/camping-maslina-22093", "affil": [], "prem": true, "tag": "Wundersch\u00f6ner Campingplatz, am Meer gelegen, ein Ganzjahresplatz zum entspannen!"}, "26601": {"id": 26601, "lat": 42.39994, "lng": 19.64809, "p": 1, "name": "Boga Alpine Resort", "town": "Shkoder ", "cat": 4, "catWidth": 64, "price": "10 \u20ac", "rtg": 5.0, "rtgCount": 1, "rtgWidth": 80, "img": "//images-camping.info/CampsiteImages/223957_Thumbnail.jpg", "url": "/albanien/albanien/boga-alpine-resort-26601", "affil": [], "prem": true, "tag": null}, "25076": {"id": 25076, "lat": 40.10762, "lng": 19.7271, "p": 1, "name": "Albania - Camping Kranea ", "town": "Livadh - Himare", "cat": 5, "catWidth": 80, "price": "18 \u20ac", "rtg": 4.19, "rtgCount": 32, "rtgWidth": 69, "img": "//images-camping.info/CampsiteImages/105140_Thumbnail.jpg", "url": "/albanien/albanien/albania-camping-kranea-25076", "affil": [], "prem": true, "tag": "Camping Kranea - an einem der sch\u00f6nsten Str\u00e4nde der albanischen Riviera gelegen"}, "24391": {"id": 24391, "lat": 40.10911, "lng": 19.72464, "p": 0, "name": "Albania - Camping Livadh", "town": "Himare", "cat": null, "catWidth": 0, "price": "10 \u20ac", "rtg": 4.0, "rtgCount": 5, "rtgWidth": 64, "img": "//images-camping.info/CampsiteImages/224528_Thumbnail.jpg", "url": "/albanien/albanien/albania-camping-livadh-24391", "affil": [], "prem": false, "tag": ""}, "27208": {"id": 27208, "lat": 42.42113, "lng": 18.70527, "p": 0, "name": "Auto Kamp Bova", "town": "Tivat", "cat": null, "catWidth": 0, "price": "", "rtg": 1.0, "rtgCount": 1, "rtgWidth": 16, "img": "", "url": "/montenegro/montenegro/auto-kamp-bova-27208", "affil": [], "prem": false, "tag": ""}, "27223": {"id": 27223, "lat": 42.4523, "lng": 19.89255, "p": 0, "name": "Camping Tradita", "town": "Valbona", "cat": null, "catWidth": 0, "price": "7 \u20ac", "rtg": null, "rtgCount": 0, "rtgWidth": 0, "img": "//images-camping.info/CampsiteImages/239087_Thumbnail.jpg", "url": "/albanien/albanien/camping-tradita-27223", "affil": [], "prem": false, "tag": ""}, "22092": {"id": 22092, "lat": 42.45306, "lng": 18.56944, "p": 0, "name": "Autocamp Zelenika", "town": "Zelenika", "cat": 2, "catWidth": 32, "price": "18.70 \u20ac", "rtg": 2.22, "rtgCount": 9, "rtgWidth": 37, "img": "//images-camping.info/CampsiteImages/170384_Thumbnail.jpg", "url": "/montenegro/montenegro/autocamp-zelenika-22092", "affil": [], "prem": false, "tag": ""}, "24213": {"id": 24213, "lat": 42.45703, "lng": 18.66384, "p": 0, "name": "Camping Zlokovic", "town": "Bijela", "cat": 4, "catWidth": 64, "price": "21 \u20ac", "rtg": 3.73, "rtgCount": 33, "rtgWidth": 57, "img": "//images-camping.info/CampsiteImages/171017_Thumbnail.jpg", "url": "/montenegro/montenegro/camping-zlokovic-24213", "affil": [], "prem": false, "tag": ""}, "27151": {"id": 27151, "lat": 42.46409, "lng": 19.19262, "p": 0, "name": "Eco Community Garden Camping", "town": "Podgorica", "cat": null, "catWidth": 0, "price": "10 \u20ac", "rtg": 5.0, "rtgCount": 1, "rtgWidth": 80, "img": "//images-camping.info/CampsiteImages/234733_Thumbnail.jpg", "url": "/montenegro/montenegro/eco-community-garden-camping-27151", "affil": [], "prem": false, "tag": ""}, "24796": {"id": 24796, "lat": 42.48304, "lng": 19.30563, "p": 0, "name": "Camping Izvor-Hostel Izvor", "town": "Podgorica", "cat": 3, "catWidth": 48, "price": "16 \u20ac", "rtg": 3.33, "rtgCount": 3, "rtgWidth": 54, "img": "//images-camping.info/CampsiteImages/160420_Thumbnail.jpg", "url": "/montenegro/montenegro/camping-izvor-hostel-izvor-24796", "affil": [], "prem": false, "tag": ""}, "24214": {"id": 24214, "lat": 42.48672, "lng": 18.65192, "p": 0, "name": "Autocamp Naluka", "town": "Morinj", "cat": null, "catWidth": 0, "price": "19 \u20ac", "rtg": 4.16, "rtgCount": 19, "rtgWidth": 69, "img": "", "url": "/montenegro/montenegro/autocamp-naluka-24214", "affil": [], "prem": false, "tag": ""}, "24559": {"id": 24559, "lat": 42.50786, "lng": 21.90475, "p": 0, "name": "AutoMoto Camp Enigma", "town": "Vranje", "cat": 3, "catWidth": 48, "price": "20 \u20ac", "rtg": 4.39, "rtgCount": 36, "rtgWidth": 71, "img": "//images-camping.info/CampsiteImages/81111_Thumbnail.jpg", "url": "/serbien/serbien/automoto-camp-enigma-24559", "affil": [], "prem": false, "tag": ""}, "25947": {"id": 25947, "lat": 42.55032, "lng": 19.82521, "p": 0, "name": "Camping-Climbing Gusinje Krojet", "town": "Gusinje", "cat": 5, "catWidth": 80, "price": "10 \u20ac", "rtg": 4.6, "rtgCount": 5, "rtgWidth": 72, "img": "//images-camping.info/CampsiteImages/170038_Thumbnail.jpg", "url": "/montenegro/montenegro/camping-climbing-gusinje-krojet-25947", "affil": [], "prem": false, "tag": ""}, "26226": {"id": 26226, "lat": 42.58807, "lng": 19.70469, "p": 0, "name": "Camping am Hostel", "town": "Vermosh", "cat": null, "catWidth": 0, "price": "", "rtg": 4.0, "rtgCount": 1, "rtgWidth": 64, "img": "", "url": "/albanien/albanien/camping-am-hostel-26226", "affil": [], "prem": false, "tag": ""}, "23785": {"id": 23785, "lat": 42.60632, "lng": 19.9308, "p": 0, "name": "Camping LakeViews", "town": "Plav", "cat": 3, "catWidth": 48, "price": "12 \u20ac", "rtg": 4.0, "rtgCount": 2, "rtgWidth": 64, "img": "//images-camping.info/CampsiteImages/185403_Thumbnail.jpg", "url": "/montenegro/montenegro/camping-lakeviews-23785", "affil": [], "prem": false, "tag": ""}, "26920": {"id": 26920, "lat": 42.23473, "lng": 19.0926, "p": 0, "name": "Nikolais Petranovic", "town": "Virpazar", "cat": null, "catWidth": 0, "price": "25 \u20ac", "rtg": 5.0, "rtgCount": 2, "rtgWidth": 80, "img": "//images-camping.info/CampsiteImages/213561_Thumbnail.jpg", "url": "/montenegro/montenegro/nikolais-petranovic-26920", "affil": [], "prem": false, "tag": ""}, "26643": {"id": 26643, "lat": 42.25195, "lng": 18.89832, "p": 0, "name": "Camping Crvena Glavica", "town": "Sveti Stefan", "cat": null, "catWidth": 0, "price": "", "rtg": 2.33, "rtgCount": 3, "rtgWidth": 38, "img": "", "url": "/montenegro/montenegro/camping-crvena-glavica-26643", "affil": [], "prem": false, "tag": ""}, "24564": {"id": 24564, "lat": 42.28986, "lng": 18.8465, "p": 0, "name": "Camp Budva", "town": "Budva", "cat": 2, "catWidth": 32, "price": "18.60 \u20ac", "rtg": 1.67, "rtgCount": 3, "rtgWidth": 25, "img": "//images-camping.info/CampsiteImages/115350_Thumbnail.jpg", "url": "/montenegro/montenegro/camp-budva-24564", "affil": [], "prem": false, "tag": ""}, "23760": {"id": 23760, "lat": 42.30557, "lng": 18.80059, "p": 0, "name": "Camp Jaz Hostel", "town": "Budva", "cat": 2, "catWidth": 32, "price": "4 \u20ac", "rtg": 1.5, "rtgCount": 8, "rtgWidth": 24, "img": "//images-camping.info/CampsiteImages/45005_Thumbnail.jpg", "url": "/montenegro/montenegro/camp-jaz-hostel-23760", "affil": [], "prem": false, "tag": ""}, "26638": {"id": 26638, "lat": 42.34684, "lng": 19.91328, "p": 0, "name": "Curraj i Ep\u00ebrm Summer Camping", "town": "Curraj i Ep\u00ebrm", "cat": 3, "catWidth": 48, "price": "", "rtg": null, "rtgCount": 0, "rtgWidth": 0, "img": "//images-camping.info/CampsiteImages/187881_Thumbnail.jpg", "url": "/albanien/albanien/curraj-i-ep%c3%abrm-summer-camping-26638", "affil": [], "prem": false, "tag": ""}, "27090": {"id": 27090, "lat": 42.36538, "lng": 18.72607, "p": 0, "name": "Agape Farm-Camp", "town": "Ljesevici Village,Tivat", "cat": 0, "catWidth": 0, "price": "27 \u20ac", "rtg": null, "rtgCount": 0, "rtgWidth": 0, "img": "//images-camping.info/CampsiteImages/226554_Thumbnail.jpg", "url": "/montenegro/montenegro/agape-farm-camp-27090", "affil": [], "prem": false, "tag": ""}, "24226": {"id": 24226, "lat": 42.39191, "lng": 19.77878, "p": 0, "name": "Camping Rupa Guesthouse & Camping", "town": "Theth", "cat": null, "catWidth": 0, "price": "8 \u20ac", "rtg": 4.0, "rtgCount": 1, "rtgWidth": 64, "img": "//images-camping.info/CampsiteImages/216077_Thumbnail.jpg", "url": "/albanien/albanien/camping-rupa-guesthouse-camping-24226", "affil": [], "prem": false, "tag": ""}, "27044": {"id": 27044, "lat": 42.39577, "lng": 19.77751, "p": 0, "name": "Camping Zorgji", "town": "Theth", "cat": null, "catWidth": 0, "price": "", "rtg": null, "rtgCount": 0, "rtgWidth": 0, "img": "//images-camping.info/CampsiteImages/218886_Thumbnail.jpg", "url": "/albanien/albanien/camping-zorgji-27044", "affil": [], "prem": false, "tag": ""}, "24225": {"id": 24225, "lat": 42.39639, "lng": 19.77353, "p": 0, "name": "Camping Prek Harusha", "town": "Theth", "cat": 3, "catWidth": 48, "price": "", "rtg": 5.0, "rtgCount": 3, "rtgWidth": 80, "img": "//images-camping.info/CampsiteImages/216076_Thumbnail.jpg", "url": "/albanien/albanien/camping-prek-harusha-24225", "affil": [], "prem": false, "tag": ""}, "26543": {"id": 26543, "lat": 42.099, "lng": 19.8173, "p": 0, "name": "Natura Bar Restaurant Camping", "town": "Termal", "cat": null, "catWidth": 0, "price": "", "rtg": 3.67, "rtgCount": 3, "rtgWidth": 57, "img": "", "url": "/albanien/albanien/natura-bar-restaurant-camping-26543", "affil": [], "prem": false, "tag": ""}, "24632": {"id": 24632, "lat": 42.13852, "lng": 19.46616, "p": 0, "name": "Camping Lake Shkodra Resort, Albania", "town": "Omare/Grile, Vrake", "cat": 4, "catWidth": 64, "price": "18 \u20ac", "rtg": 4.86, "rtgCount": 59, "rtgWidth": 74, "img": "//images-camping.info/CampsiteImages/99379_Thumbnail.jpg", "url": "/albanien/albanien/camping-lake-shkodra-resort-albania-24632", "affil": [{"url": "//images-camping.info/_generated/affiliate/logo-award-border_affiliate_71px.png", "title": "Camping.Info Award", "nofollow": "", "deeplink": "http://www.camping.info/award"}, {"url": "//images-camping.info/_generated/affiliate/campcard_dreh2017.png", "title": "Zur ADAC Campingplatz-Beschreibung mit ADAC CampCard-Preis, G\u00fcltigkeitszeiten und Vorteilsangeboten", "nofollow": "", "deeplink": "https://campingfuehrer.adac.de/campingfuehrer/albanien-albanien-camping-resort-lake-shkodra-aa140.php"}], "prem": false, "tag": ""}, "24216": {"id": 24216, "lat": 41.91361, "lng": 19.25667, "p": 0, "name": "Camping Tomi", "town": "Ulcinj", "cat": 0, "catWidth": 0, "price": "15 \u20ac", "rtg": 2.67, "rtgCount": 3, "rtgWidth": 41, "img": "", "url": "/montenegro/montenegro/camping-tomi-24216", "affil": [], "prem": false, "tag": ""}, "23394": {"id": 23394, "lat": 41.92413, "lng": 19.54149, "p": 0, "name": "Camping Albania", "town": "Bushat / Barbullush", "cat": 5, "catWidth": 80, "price": "14 \u20ac", "rtg": 4.3, "rtgCount": 23, "rtgWidth": 70, "img": "//images-camping.info/CampsiteImages/191108_Thumbnail.jpg", "url": "/albanien/albanien/camping-albania-23394", "affil": [{"url": "//images-camping.info/_generated/affiliate/campcard_dreh2017.png", "title": "Zur ADAC Campingplatz-Beschreibung mit ADAC CampCard-Preis, G\u00fcltigkeitszeiten und Vorteilsangeboten", "nofollow": "", "deeplink": "https://campingfuehrer.adac.de/campingfuehrer/albanien-albanien-camping-albania-aa150.php"}], "prem": false, "tag": ""}, "24569": {"id": 24569, "lat": 41.99667, "lng": 21.55222, "p": 0, "name": "Camping Bellevue", "town": "Skopje", "cat": 3, "catWidth": 48, "price": "28 \u20ac", "rtg": 3.75, "rtgCount": 8, "rtgWidth": 58, "img": "//images-camping.info/CampsiteImages/205810_Thumbnail.jpg", "url": "/mazedonien/mazedonien/camping-bellevue-24569", "affil": [], "prem": false, "tag": ""}, "24744": {"id": 24744, "lat": 42.00993, "lng": 19.15087, "p": 0, "name": "Camping Utjeha", "town": "Utjeha", "cat": 3, "catWidth": 48, "price": "17 \u20ac", "rtg": 4.71, "rtgCount": 14, "rtgWidth": 73, "img": "//images-camping.info/CampsiteImages/80885_Thumbnail.jpg", "url": "/montenegro/montenegro/camping-utjeha-24744", "affil": [], "prem": false, "tag": ""}, "24499": {"id": 24499, "lat": 41.47067, "lng": 19.69842, "p": 0, "name": "Nord Park", "town": "Fushe Kruje", "cat": 4, "catWidth": 64, "price": "", "rtg": 4.0, "rtgCount": 1, "rtgWidth": 64, "img": "//images-camping.info/CampsiteImages/133635_Thumbnail.jpg", "url": "/albanien/albanien/nord-park-24499", "affil": [], "prem": false, "tag": ""}, "24442": {"id": 24442, "lat": 41.57229, "lng": 20.05231, "p": 0, "name": "Camping Albania Oasi Alla Chiesa", "town": "Burrel", "cat": 3, "catWidth": 48, "price": "13 \u20ac", "rtg": 4.5, "rtgCount": 4, "rtgWidth": 72, "img": "//images-camping.info/CampsiteImages/133631_Thumbnail.jpg", "url": "/albanien/albanien/camping-albania-oasi-alla-chiesa-24442", "affil": [], "prem": false, "tag": ""}, "26785": {"id": 26785, "lat": 41.68584, "lng": 20.43833, "p": 0, "name": "Camping Kapxhiu", "town": "Peshkopi", "cat": 5, "catWidth": 80, "price": "16 \u20ac", "rtg": null, "rtgCount": 0, "rtgWidth": 0, "img": "//images-camping.info/CampsiteImages/200953_Thumbnail.jpg", "url": "/albanien/albanien/camping-kapxhiu-26785", "affil": [], "prem": false, "tag": ""}, "24500": {"id": 24500, "lat": 41.78599, "lng": 19.62893, "p": 0, "name": "Riviera Shengjin", "town": "Lezhe", "cat": null, "catWidth": 0, "price": "10 \u20ac", "rtg": 3.0, "rtgCount": 1, "rtgWidth": 48, "img": "//images-camping.info/CampsiteImages/196783_Thumbnail.jpg", "url": "/albanien/albanien/riviera-shengjin-24500", "affil": [], "prem": false, "tag": ""}, "25590": {"id": 25590, "lat": 41.83488, "lng": 20.33033, "p": 0, "name": "Camping Biofarm Reci", "town": "Zall-Rec", "cat": 1, "catWidth": 16, "price": "5 \u20ac", "rtg": 3.5, "rtgCount": 4, "rtgWidth": 56, "img": "//images-camping.info/CampsiteImages/135530_Thumbnail.jpg", "url": "/albanien/albanien/camping-biofarm-reci-25590", "affil": [], "prem": false, "tag": ""}, "24728": {"id": 24728, "lat": 41.86531, "lng": 19.34429, "p": 0, "name": "Ada Bojana", "town": "Ulcinj", "cat": 3, "catWidth": 48, "price": "17 \u20ac", "rtg": 4.0, "rtgCount": 14, "rtgWidth": 64, "img": "//images-camping.info/CampsiteImages/78566_Thumbnail.jpg", "url": "/montenegro/montenegro/ada-bojana-24728", "affil": [], "prem": false, "tag": ""}, "26126": {"id": 26126, "lat": 41.90281, "lng": 19.27048, "p": 0, "name": "Camping Tropicana Beach", "town": "Ulcinj", "cat": 2, "catWidth": 32, "price": "", "rtg": 3.67, "rtgCount": 3, "rtgWidth": 57, "img": "", "url": "/montenegro/montenegro/camping-tropicana-beach-26126", "affil": [], "prem": false, "tag": ""}, "23276": {"id": 23276, "lat": 41.23291, "lng": 19.51734, "p": 0, "name": "Camping Mali Robit", "town": "Kavaje", "cat": 3, "catWidth": 48, "price": "14 \u20ac", "rtg": 3.5, "rtgCount": 18, "rtgWidth": 56, "img": "//images-camping.info/CampsiteImages/233213_Thumbnail.jpg", "url": "/albanien/albanien/camping-mali-robit-23276", "affil": [], "prem": false, "tag": ""}, "27045": {"id": 27045, "lat": 41.23956, "lng": 19.51878, "p": 0, "name": "Camping Atlantid", "town": "Durres", "cat": null, "catWidth": 0, "price": "", "rtg": null, "rtgCount": 0, "rtgWidth": 0, "img": "//images-camping.info/CampsiteImages/218892_Thumbnail.jpg", "url": "/albanien/albanien/camping-atlantid-27045", "affil": [], "prem": false, "tag": ""}, "23587": {"id": 23587, "lat": 41.29925, "lng": 19.84976, "p": 0, "name": "Hotel Restaurant Baron", "town": "Tirana", "cat": 3, "catWidth": 48, "price": "17 \u20ac", "rtg": 3.0, "rtgCount": 5, "rtgWidth": 48, "img": "//images-camping.info/CampsiteImages/113919_Thumbnail.jpg", "url": "/albanien/albanien/hotel-restaurant-baron-23587", "affil": [], "prem": false, "tag": ""}, "24206": {"id": 24206, "lat": 41.17312, "lng": 20.67928, "p": 0, "name": "Autocamp AS", "town": "Struga", "cat": 1, "catWidth": 16, "price": "20.77 \u20ac", "rtg": 2.71, "rtgCount": 7, "rtgWidth": 41, "img": "//images-camping.info/CampsiteImages/60672_Thumbnail.jpg", "url": "/mazedonien/mazedonien/autocamp-as-24206", "affil": [], "prem": false, "tag": ""}, "24792": {"id": 24792, "lat": 40.12029, "lng": 19.7016, "p": 0, "name": "Jal Camping", "town": "Vouno", "cat": 4, "catWidth": 64, "price": "20 \u20ac", "rtg": 3.0, "rtgCount": 3, "rtgWidth": 48, "img": "//images-camping.info/CampsiteImages/85632_Thumbnail.jpg", "url": "/albanien/albanien/jal-camping-24792", "affil": [], "prem": false, "tag": ""}, "24478": {"id": 24478, "lat": 40.21416, "lng": 20.64636, "p": 0, "name": "Camping Farma Sotira", "town": "Komuna Leskovik", "cat": 4, "catWidth": 64, "price": "10 \u20ac", "rtg": 3.94, "rtgCount": 16, "rtgWidth": 59, "img": "//images-camping.info/CampsiteImages/97964_Thumbnail.jpg", "url": "/albanien/albanien/camping-farma-sotira-24478", "affil": [], "prem": false, "tag": ""}, "25537": {"id": 25537, "lat": 40.37748, "lng": 19.47914, "p": 0, "name": "Rezidenca Cekodhima", "town": "Radhime", "cat": null, "catWidth": 0, "price": "20 \u20ac", "rtg": 4.0, "rtgCount": 5, "rtgWidth": 64, "img": "//images-camping.info/CampsiteImages/135592_Thumbnail.jpg", "url": "/albanien/albanien/rezidenca-cekodhima-25537", "affil": [], "prem": false, "tag": ""}, "24846": {"id": 24846, "lat": 40.77849, "lng": 19.85778, "p": 0, "name": "Albania Berat Caravan Camping", "town": "Ura Vajgurore", "cat": 5, "catWidth": 80, "price": "", "rtg": 4.64, "rtgCount": 28, "rtgWidth": 73, "img": "//images-camping.info/CampsiteImages/94005_Thumbnail.jpg", "url": "/albanien/albanien/albania-berat-caravan-camping-24846", "affil": [], "prem": false, "tag": ""}, "27210": {"id": 27210, "lat": 40.89798, "lng": 20.69785, "p": 0, "name": "Bio Kamping Pogradec", "town": "Pogradec", "cat": null, "catWidth": 0, "price": "", "rtg": null, "rtgCount": 0, "rtgWidth": 0, "img": "", "url": "/albanien/albanien/bio-kamping-pogradec-27210", "affil": [], "prem": false, "tag": ""}, "26411": {"id": 26411, "lat": 40.90125, "lng": 20.70987, "p": 0, "name": "Camping Arbi", "town": "Pogradec", "cat": 5, "catWidth": 80, "price": "16 \u20ac", "rtg": 4.88, "rtgCount": 8, "rtgWidth": 75, "img": "//images-camping.info/CampsiteImages/169879_Thumbnail.jpg", "url": "/albanien/albanien/camping-arbi-26411", "affil": [], "prem": false, "tag": ""}, "24207": {"id": 24207, "lat": 40.92463, "lng": 20.77409, "p": 0, "name": "Camping Ljubanista", "town": "Ohrid", "cat": 2, "catWidth": 32, "price": "", "rtg": 3.8, "rtgCount": 5, "rtgWidth": 58, "img": "", "url": "/mazedonien/mazedonien/camping-ljubanista-24207", "affil": [], "prem": false, "tag": ""}, "25116": {"id": 25116, "lat": 40.93289, "lng": 20.64089, "p": 0, "name": "Camping Victoria", "town": "Pogradec", "cat": 3, "catWidth": 48, "price": "12 \u20ac", "rtg": 5.0, "rtgCount": 2, "rtgWidth": 80, "img": "//images-camping.info/CampsiteImages/107965_Thumbnail.jpg", "url": "/albanien/albanien/camping-victoria-25116", "affil": [], "prem": false, "tag": ""}, "24209": {"id": 24209, "lat": 40.93556, "lng": 21.08284, "p": 0, "name": "Camping Krani", "town": "Krani", "cat": null, "catWidth": 0, "price": "", "rtg": 1.5, "rtgCount": 2, "rtgWidth": 24, "img": "", "url": "/mazedonien/mazedonien/camping-krani-24209", "affil": [], "prem": false, "tag": ""}, "27042": {"id": 27042, "lat": 40.97383, "lng": 20.64377, "p": 0, "name": "Camping & Hotel Herges", "town": "Pogradec", "cat": null, "catWidth": 0, "price": "", "rtg": null, "rtgCount": 0, "rtgWidth": 0, "img": "//images-camping.info/CampsiteImages/218884_Thumbnail.jpg", "url": "/albanien/albanien/camping-hotel-herges-27042", "affil": [], "prem": false, "tag": ""}, "22101": {"id": 22101, "lat": 40.99694, "lng": 20.80028, "p": 0, "name": "Autokamp Gradishte", "town": "Ohrid", "cat": null, "catWidth": 0, "price": "", "rtg": 1.57, "rtgCount": 7, "rtgWidth": 24, "img": "//images-camping.info/CampsiteImages/17925_Thumbnail.jpg", "url": "/mazedonien/mazedonien/autokamp-gradishte-22101", "affil": [], "prem": false, "tag": ""}, "26114": {"id": 26114, "lat": 40.99896, "lng": 20.636, "p": 0, "name": "Camping Restaurant Bar Rei", "town": "Pogradec", "cat": 4, "catWidth": 64, "price": "5 \u20ac", "rtg": 5.0, "rtgCount": 1, "rtgWidth": 80, "img": "//images-camping.info/CampsiteImages/140629_Thumbnail.jpg", "url": "/albanien/albanien/camping-restaurant-bar-rei-26114", "affil": [], "prem": false, "tag": ""}, "27041": {"id": 27041, "lat": 41.05131, "lng": 20.64235, "p": 0, "name": "Camping Beach Erlin", "town": "Pogradec", "cat": null, "catWidth": 0, "price": "", "rtg": null, "rtgCount": 0, "rtgWidth": 0, "img": "//images-camping.info/CampsiteImages/218883_Thumbnail.jpg", "url": "/albanien/albanien/camping-beach-erlin-27041", "affil": [], "prem": false, "tag": ""}, "20567": {"id": 20567, "lat": 39.44388, "lng": 20.25805, "p": 0, "name": "Campsite Nautilos", "town": "Plataria/igoumenitsa", "cat": null, "catWidth": 0, "price": "", "rtg": 5.0, "rtgCount": 4, "rtgWidth": 80, "img": "//images-camping.info/CampsiteImages/138898_Thumbnail.jpg", "url": "/griechenland/epirus/campsite-nautilos-20567", "affil": [], "prem": false, "tag": ""}, "20570": {"id": 20570, "lat": 39.46055, "lng": 20.26166, "p": 0, "name": "Campsite Elena's Beach", "town": "Plataria/igoumenitsa", "cat": null, "catWidth": 0, "price": "22 \u20ac", "rtg": 4.1, "rtgCount": 10, "rtgWidth": 68, "img": "//images-camping.info/CampsiteImages/138891_Thumbnail.jpg", "url": "/griechenland/epirus/campsite-elena-s-beach-20570", "affil": [], "prem": false, "tag": ""}, "20562": {"id": 20562, "lat": 39.47417, "lng": 20.24111, "p": 0, "name": "Campsite Kalami Beach", "town": "Plataria/igoumenitsa", "cat": null, "catWidth": 0, "price": "", "rtg": 4.25, "rtgCount": 16, "rtgWidth": 70, "img": "//images-camping.info/CampsiteImages/138890_Thumbnail.jpg", "url": "/griechenland/epirus/campsite-kalami-beach-20562", "affil": [], "prem": false, "tag": ""}, "25185": {"id": 25185, "lat": 39.50829, "lng": 20.22213, "p": 0, "name": "Camping Drepanos", "town": "Igoumenitsa", "cat": null, "catWidth": 0, "price": "", "rtg": 4.4, "rtgCount": 5, "rtgWidth": 71, "img": "//images-camping.info/CampsiteImages/150620_Thumbnail.jpg", "url": "/griechenland/epirus/camping-drepanos-25185", "affil": [{"url": "//images-camping.info/_generated/affiliate/cca-acsi-logo-resultspage39.png", "title": "CampingCard ACSI - bis zu 50 % Rabatt", "nofollow": "", "deeplink": "http://www.campingcard.com/de/griechenland/epirus/igoumenitsa/camping-drepanos-111496/"}], "prem": false, "tag": ""}, "20573": {"id": 20573, "lat": 39.66441, "lng": 19.8443, "p": 0, "name": "Campsite Dionysus", "town": "Dassia", "cat": null, "catWidth": 0, "price": "20.40 \u20ac", "rtg": 2.0, "rtgCount": 1, "rtgWidth": 32, "img": "", "url": "/griechenland/ionische-inseln/campsite-dionysus-20573", "affil": [{"url": "//images-camping.info/_generated/affiliate/campcard_dreh2017.png", "title": "Zur ADAC Campingplatz-Beschreibung mit ADAC CampCard-Preis, G\u00fcltigkeitszeiten und Vorteilsangeboten", "nofollow": "", "deeplink": "https://campingfuehrer.adac.de/campingfuehrer/griechenland-griechische-inseln-camping-dionysus-gi010.php"}], "prem": false, "tag": ""}, "20566": {"id": 20566, "lat": 39.67696, "lng": 20.84382, "p": 0, "name": "Campsite Limnopula", "town": "Ioannina", "cat": null, "catWidth": 0, "price": "27 \u20ac", "rtg": 3.42, "rtgCount": 12, "rtgWidth": 55, "img": "", "url": "/griechenland/epirus/campsite-limnopula-20566", "affil": [], "prem": false, "tag": ""}, "20579": {"id": 20579, "lat": 39.67722, "lng": 19.72444, "p": 0, "name": "Campsite Paleokastritsa", "town": "Paleokastritsa", "cat": null, "catWidth": 0, "price": "", "rtg": null, "rtgCount": 0, "rtgWidth": 0, "img": "", "url": "/griechenland/ionische-inseln/campsite-paleokastritsa-20579", "affil": [], "prem": false, "tag": ""}, "20712": {"id": 20712, "lat": 39.6825, "lng": 21.65222, "p": 0, "name": "Campsite Philoxenia", "town": "Kalambaka", "cat": 3, "catWidth": 48, "price": "", "rtg": 3.0, "rtgCount": 4, "rtgWidth": 48, "img": "//images-camping.info/CampsiteImages/46240_Thumbnail.jpg", "url": "/griechenland/thessalien/campsite-philoxenia-20712", "affil": [{"url": "//images-camping.info/_generated/affiliate/camping-travel-club-logo_100.png", "title": "Camping Travel Club", "nofollow": "", "deeplink": "https://www.campingtravelclub.de/controllers/campings.php?fc=detail&n=11517"}], "prem": false, "tag": ""}, "25056": {"id": 25056, "lat": 39.68602, "lng": 19.83865, "p": 0, "name": "Camping Karda Beach", "town": "Dassia", "cat": null, "catWidth": 0, "price": "", "rtg": 4.5, "rtgCount": 2, "rtgWidth": 72, "img": "", "url": "/griechenland/ionische-inseln/camping-karda-beach-25056", "affil": [{"url": "//images-camping.info/_generated/affiliate/cca-acsi-logo-resultspage39.png", "title": "CampingCard ACSI - bis zu 50 % Rabatt", "nofollow": "", "deeplink": "http://www.campingcard.com/de/griechenland/ionische-inseln/dassia/camping-karda-beach-100893/"}, {"url": "//images-camping.info/_generated/affiliate/campcard_dreh2017.png", "title": "Zur ADAC Campingplatz-Beschreibung mit ADAC CampCard-Preis, G\u00fcltigkeitszeiten und Vorteilsangeboten", "nofollow": "", "deeplink": "https://campingfuehrer.adac.de/campingfuehrer/griechenland-griechische-inseln-camping-karda-beach-gi012.php"}], "prem": false, "tag": ""}, "20582": {"id": 20582, "lat": 39.68605, "lng": 19.83513, "p": 0, "name": "Ipsos Beach Camping Corfu", "town": "Ipsos", "cat": null, "catWidth": 0, "price": "", "rtg": null, "rtgCount": 0, "rtgWidth": 0, "img": "", "url": "/griechenland/ionische-inseln/ipsos-beach-camping-corfu-20582", "affil": [], "prem": false, "tag": ""}, "20704": {"id": 20704, "lat": 39.68944, "lng": 21.64583, "p": 0, "name": "Campsite International Rizos Meteora", "town": "Kalambaka", "cat": 3, "catWidth": 48, "price": "21 \u20ac", "rtg": 5.0, "rtgCount": 1, "rtgWidth": 80, "img": "//images-camping.info/CampsiteImages/85171_Thumbnail.jpg", "url": "/griechenland/thessalien/campsite-international-rizos-meteora-20704", "affil": [], "prem": false, "tag": ""}, "20705": {"id": 20705, "lat": 39.71305, "lng": 21.61611, "p": 0, "name": "Campsite Vrachos Kastraki", "town": "Kastraki/kalambaka", "cat": null, "catWidth": 0, "price": "", "rtg": 4.31, "rtgCount": 32, "rtgWidth": 70, "img": "//images-camping.info/CampsiteImages/217112_Thumbnail.jpg", "url": "/griechenland/thessalien/campsite-vrachos-kastraki-20705", "affil": [{"url": "//images-camping.info/_generated/affiliate/cca-acsi-logo-resultspage39.png", "title": "CampingCard ACSI - bis zu 50 % Rabatt", "nofollow": "", "deeplink": "http://www.campingcard.com/de/griechenland/thessalien/kastrakion/camping-vrachos-kastraki-100896/"}], "prem": false, "tag": ""}, "27047": {"id": 27047, "lat": 39.76832, "lng": 20.00156, "p": 0, "name": "Ksamil Camping", "town": "Ksamil", "cat": null, "catWidth": 0, "price": "10 \u20ac", "rtg": null, "rtgCount": 0, "rtgWidth": 0, "img": "//images-camping.info/CampsiteImages/220370_Thumbnail.jpg", "url": "/albanien/albanien/ksamil-camping-27047", "affil": [], "prem": false, "tag": ""}, "26410": {"id": 26410, "lat": 39.77692, "lng": 20.00747, "p": 0, "name": "Camping Gaci", "town": "Ksamil", "cat": 5, "catWidth": 80, "price": "12 \u20ac", "rtg": 4.5, "rtgCount": 4, "rtgWidth": 72, "img": "//images-camping.info/CampsiteImages/170587_Thumbnail.jpg", "url": "/albanien/albanien/camping-gaci-26410", "affil": [], "prem": false, "tag": ""}, "24445": {"id": 24445, "lat": 39.77865, "lng": 20.00573, "p": 0, "name": "Albania Ksamil Caravan Camping", "town": "Ksamil", "cat": 4, "catWidth": 64, "price": "", "rtg": 4.63, "rtgCount": 57, "rtgWidth": 73, "img": "//images-camping.info/CampsiteImages/94011_Thumbnail.jpg", "url": "/albanien/albanien/albania-ksamil-caravan-camping-24445", "affil": [], "prem": false, "tag": ""}, "26734": {"id": 26734, "lat": 39.7794, "lng": 20.00694, "p": 0, "name": "Sunset Camping Ksamil", "town": "Ksamil", "cat": 5, "catWidth": 80, "price": "10 \u20ac", "rtg": 3.0, "rtgCount": 2, "rtgWidth": 48, "img": "//images-camping.info/CampsiteImages/195058_Thumbnail.jpg", "url": "/albanien/albanien/sunset-camping-ksamil-26734", "affil": [], "prem": false, "tag": ""}, "20578": {"id": 20578, "lat": 39.78333, "lng": 19.785, "p": 0, "name": "Roda Beach Camping", "town": "Roda", "cat": null, "catWidth": 0, "price": "", "rtg": 4.0, "rtgCount": 1, "rtgWidth": 64, "img": "//images-camping.info/CampsiteImages/15960_Thumbnail.jpg", "url": "/griechenland/ionische-inseln/roda-beach-camping-20578", "affil": [], "prem": false, "tag": ""}, "20581": {"id": 20581, "lat": 39.79159, "lng": 19.70819, "p": 0, "name": "Dolphin Camping", "town": "Sidari", "cat": null, "catWidth": 0, "price": "", "rtg": 4.0, "rtgCount": 2, "rtgWidth": 64, "img": "//images-camping.info/CampsiteImages/15970_Thumbnail.jpg", "url": "/griechenland/ionische-inseln/dolphin-camping-20581", "affil": [], "prem": false, "tag": ""}, "26450": {"id": 26450, "lat": 39.84701, "lng": 20.02591, "p": 0, "name": "Camping Riverside", "town": "Sarande", "cat": 4, "catWidth": 64, "price": "12 \u20ac", "rtg": null, "rtgCount": 0, "rtgWidth": 0, "img": "//images-camping.info/CampsiteImages/172388_Thumbnail.jpg", "url": "/albanien/albanien/camping-riverside-26450", "affil": [], "prem": false, "tag": ""}, "27120": {"id": 27120, "lat": 39.85002, "lng": 20.02133, "p": 0, "name": "Camping Ecuador", "town": "Sarande", "cat": 5, "catWidth": 80, "price": "15 \u20ac", "rtg": null, "rtgCount": 0, "rtgWidth": 0, "img": "//images-camping.info/CampsiteImages/234366_Thumbnail.jpg", "url": "/albanien/albanien/camping-ecuador-27120", "affil": [], "prem": false, "tag": ""}, "26935": {"id": 26935, "lat": 39.99248, "lng": 19.91465, "p": 0, "name": "Gate to Horison", "town": "Lukova", "cat": 4, "catWidth": 64, "price": "", "rtg": null, "rtgCount": 0, "rtgWidth": 0, "img": "//images-camping.info/CampsiteImages/211667_Thumbnail.jpg", "url": "/albanien/albanien/gate-to-horison-26935", "affil": [], "prem": false, "tag": ""}, "24221": {"id": 24221, "lat": 40.09617, "lng": 19.7549, "p": 0, "name": "Kamping Himara", "town": "Himara", "cat": 4, "catWidth": 64, "price": "15 \u20ac", "rtg": 3.33, "rtgCount": 6, "rtgWidth": 54, "img": "//images-camping.info/CampsiteImages/60565_Thumbnail.jpg", "url": "/albanien/albanien/kamping-himara-24221", "affil": [], "prem": false, "tag": ""}, "26857": {"id": 26857, "lat": 40.10122, "lng": 20.15043, "p": 0, "name": "Camping Gjirokaster", "town": "Topullaraj,Gjirokaster", "cat": 4, "catWidth": 64, "price": "12 \u20ac", "rtg": 4.88, "rtgCount": 8, "rtgWidth": 75, "img": "//images-camping.info/CampsiteImages/204421_Thumbnail.jpg", "url": "/albanien/albanien/camping-gjirokaster-26857", "affil": [], "prem": false, "tag": ""}, "26475": {"id": 26475, "lat": 40.10666, "lng": 19.72879, "p": 0, "name": "Nashos Camping", "town": "Himar\u00eb", "cat": 5, "catWidth": 80, "price": "10 \u20ac", "rtg": 5.0, "rtgCount": 4, "rtgWidth": 80, "img": "//images-camping.info/CampsiteImages/174171_Thumbnail.jpg", "url": "/albanien/albanien/nashos-camping-26475", "affil": [], "prem": false, "tag": ""}, "22048": {"id": 22048, "lat": 43.82799, "lng": 18.29659, "p": 1, "name": "Autocamp Oaza Sarajevo", "town": "Sarajevo", "cat": 3, "catWidth": 48, "price": "25.70 \u20ac", "rtg": 2.76, "rtgCount": 25, "rtgWidth": 42, "img": "//images-camping.info/CampsiteImages/76736_Thumbnail.jpg", "url": "/bosnien-herzegowina/bosnien-herzegowina/autocamp-oaza-sarajevo-22048", "affil": [], "prem": true, "tag": "Autocamp Oaza Sarajevo!"}, "26214": {"id": 26214, "lat": 43.83238, "lng": 18.28864, "p": 1, "name": "Kamp Rimski Most", "town": "Sarajevo-Ilidza", "cat": 4, "catWidth": 64, "price": "20 \u20ac", "rtg": 4.0, "rtgCount": 20, "rtgWidth": 64, "img": "//images-camping.info/CampsiteImages/155105_Thumbnail.jpg", "url": "/bosnien-herzegowina/bosnien-herzegowina/kamp-rimski-most-26214", "affil": [], "prem": true, "tag": "Ein Campingplatz am Ufer des Flusses Bosna mit angenehmer Atmosph\u00e4re"}, "26383": {"id": 26383, "lat": 43.72115, "lng": 19.70874, "p": 1, "name": "Camping Zlatibor", "town": "Zlatibor", "cat": 3, "catWidth": 48, "price": "18 \u20ac", "rtg": 4.5, "rtgCount": 6, "rtgWidth": 72, "img": "//images-camping.info/CampsiteImages/204412_Thumbnail.jpg", "url": "/serbien/serbien/camping-zlatibor-26383", "affil": [], "prem": true, "tag": null}, "27085": {"id": 27085, "lat": 44.01087, "lng": 18.16496, "p": 1, "name": "Autocamp Visoko", "town": "Visoko", "cat": 3, "catWidth": 48, "price": "15 \u20ac", "rtg": 1.0, "rtgCount": 1, "rtgWidth": 16, "img": "//images-camping.info/CampsiteImages/225613_Thumbnail.jpg", "url": "/bosnien-herzegowina/bosnien-herzegowina/autocamp-visoko-27085", "affil": [], "prem": true, "tag": "ispod bosanskih piramida"}, "27137": {"id": 27137, "lat": 45.24115, "lng": 20.02548, "p": 1, "name": "Coffeecamp-Kovilj", "town": "Kovilj", "cat": 4, "catWidth": 64, "price": "20 \u20ac", "rtg": 4.8, "rtgCount": 5, "rtgWidth": 74, "img": "//images-camping.info/CampsiteImages/232557_Thumbnail.jpg", "url": "/serbien/serbien/coffeecamp-kovilj-27137", "affil": [], "prem": true, "tag": null}, "22165": {"id": 22165, "lat": 44.76139, "lng": 21.47444, "p": 1, "name": "Camping Srebrno Jezero - Veliko Gradiste ", "town": "Veliko Gradiste", "cat": 2, "catWidth": 32, "price": "", "rtg": 2.0, "rtgCount": 4, "rtgWidth": 32, "img": "//images-camping.info/CampsiteImages/18066_Thumbnail.jpg", "url": "/serbien/serbien/camping-srebrno-jezero-veliko-gradiste-22165", "affil": [], "prem": true, "tag": null}, "27209": {"id": 27209, "lat": 44.61862, "lng": 20.55546, "p": 1, "name": "Camping Belgrade Avala", "town": "Ripanj, Belgrad", "cat": 3, "catWidth": 48, "price": "20 \u20ac", "rtg": null, "rtgCount": 0, "rtgWidth": 0, "img": "//images-camping.info/CampsiteImages/237816_Thumbnail.jpg", "url": "/serbien/serbien/camping-belgrade-avala-27209", "affil": [], "prem": true, "tag": "Close to Belgrade and highway"}, "23080": {"id": 23080, "lat": 44.67141, "lng": 20.7852, "p": 0, "name": "Camping Jabukov cvet - Banatski Brestovac", "town": "Banatski Brestovac", "cat": 1, "catWidth": 16, "price": "11.50 \u20ac", "rtg": 2.25, "rtgCount": 4, "rtgWidth": 38, "img": "//images-camping.info/CampsiteImages/18862_Thumbnail.jpg", "url": "/serbien/serbien/camping-jabukov-cvet-banatski-brestovac-23080", "affil": [], "prem": false, "tag": ""}, "22163": {"id": 22163, "lat": 44.8786, "lng": 20.35491, "p": 0, "name": "Camping Dunav", "town": "Zemun", "cat": 2, "catWidth": 32, "price": "19 \u20ac", "rtg": 3.0, "rtgCount": 26, "rtgWidth": 48, "img": "//images-camping.info/CampsiteImages/78090_Thumbnail.jpg", "url": "/serbien/serbien/camping-dunav-22163", "affil": [], "prem": false, "tag": ""}, "26899": {"id": 26899, "lat": 44.8883, "lng": 21.38593, "p": 0, "name": "Camp Oaza", "town": "Bela Crkva", "cat": 4, "catWidth": 64, "price": "14 \u20ac", "rtg": 4.6, "rtgCount": 5, "rtgWidth": 72, "img": "//images-camping.info/CampsiteImages/208110_Thumbnail.jpg", "url": "/serbien/serbien/camp-oaza-26899", "affil": [], "prem": false, "tag": ""}, "23077": {"id": 23077, "lat": 44.89054, "lng": 21.38923, "p": 0, "name": "Camping Bela Crkva", "town": "Bela Crkva", "cat": 2, "catWidth": 32, "price": "", "rtg": null, "rtgCount": 0, "rtgWidth": 0, "img": "//images-camping.info/CampsiteImages/60857_Thumbnail.jpg", "url": "/serbien/serbien/camping-bela-crkva-23077", "affil": [], "prem": false, "tag": ""}, "22161": {"id": 22161, "lat": 44.903, "lng": 21.426, "p": 0, "name": "Camp Serbia", "town": "Bela Crkva", "cat": 1, "catWidth": 16, "price": "", "rtg": 2.0, "rtgCount": 1, "rtgWidth": 32, "img": "//images-camping.info/CampsiteImages/18060_Thumbnail.jpg", "url": "/serbien/serbien/camp-serbia-22161", "affil": [], "prem": false, "tag": ""}, "24438": {"id": 24438, "lat": 44.96055, "lng": 19.52305, "p": 0, "name": "Camping Zasavica", "town": "Zasavica II", "cat": 3, "catWidth": 48, "price": "22 \u20ac", "rtg": 4.84, "rtgCount": 63, "rtgWidth": 74, "img": "//images-camping.info/CampsiteImages/185763_Thumbnail.jpg", "url": "/serbien/serbien/camping-zasavica-24438", "affil": [], "prem": false, "tag": ""}, "145": {"id": 145, "lat": 45.046, "lng": 18.99686, "p": 0, "name": "Camping Motel Spacva", "town": "Lipovac", "cat": 3, "catWidth": 48, "price": "", "rtg": 1.0, "rtgCount": 1, "rtgWidth": 16, "img": "//images-camping.info/CampsiteImages/178950_Thumbnail.jpg", "url": "/kroatien/mittelkroatien-slavonien/camping-motel-spacva-145", "affil": [], "prem": false, "tag": ""}, "24555": {"id": 24555, "lat": 45.10875, "lng": 20.29041, "p": 0, "name": "Camping parking Horizont", "town": "Surduk", "cat": null, "catWidth": 0, "price": "", "rtg": null, "rtgCount": 0, "rtgWidth": 0, "img": "//images-camping.info/CampsiteImages/69652_Thumbnail.jpg", "url": "/serbien/serbien/camping-parking-horizont-24555", "affil": [], "prem": false, "tag": ""}, "27222": {"id": 27222, "lat": 45.155, "lng": 20.007, "p": 0, "name": "Camping My Memento", "town": "Cortanovci", "cat": null, "catWidth": 0, "price": "", "rtg": null, "rtgCount": 0, "rtgWidth": 0, "img": "", "url": "/serbien/serbien/camping-my-memento-27222", "affil": [], "prem": false, "tag": ""}, "27115": {"id": 27115, "lat": 45.38853, "lng": 19.82063, "p": 0, "name": "FARMA 47 Salas miris dunja", "town": "\u010cenej, Novi Sad", "cat": 4, "catWidth": 64, "price": "10 \u20ac", "rtg": null, "rtgCount": 0, "rtgWidth": 0, "img": "//images-camping.info/CampsiteImages/227994_Thumbnail.jpg", "url": "/serbien/serbien/farma-47-salas-miris-dunja-27115", "affil": [], "prem": false, "tag": ""}, "22162": {"id": 22162, "lat": 45.6582, "lng": 19.70743, "p": 0, "name": "Camping and Motel Pipacs", "town": "Feketi\u0107", "cat": 3, "catWidth": 48, "price": "10 \u20ac", "rtg": 2.86, "rtgCount": 7, "rtgWidth": 42, "img": "//images-camping.info/CampsiteImages/41997_Thumbnail.jpg", "url": "/serbien/serbien/camping-and-motel-pipacs-22162", "affil": [], "prem": false, "tag": ""}, "24210": {"id": 24210, "lat": 45.71598, "lng": 18.9206, "p": 0, "name": "Camping Budzak", "town": "Apatin", "cat": 3, "catWidth": 48, "price": "18 \u20ac", "rtg": 4.2, "rtgCount": 5, "rtgWidth": 69, "img": "//images-camping.info/CampsiteImages/55070_Thumbnail.jpg", "url": "/serbien/serbien/camping-budzak-24210", "affil": [], "prem": false, "tag": ""}, "26628": {"id": 26628, "lat": 45.75186, "lng": 19.10182, "p": 0, "name": "Camping Sosul", "town": "Sombor", "cat": 5, "catWidth": 80, "price": "15 \u20ac", "rtg": 5.0, "rtgCount": 2, "rtgWidth": 80, "img": "//images-camping.info/CampsiteImages/187253_Thumbnail.jpg", "url": "/serbien/serbien/camping-sosul-26628", "affil": [], "prem": false, "tag": ""}, "26416": {"id": 26416, "lat": 45.76711, "lng": 19.10712, "p": 0, "name": "\"LongTour\" Bike Camp", "town": "Sombor", "cat": 3, "catWidth": 48, "price": "10 \u20ac", "rtg": 3.0, "rtgCount": 1, "rtgWidth": 48, "img": "//images-camping.info/CampsiteImages/170110_Thumbnail.jpg", "url": "/serbien/serbien/longtour-bike-camp-26416", "affil": [], "prem": false, "tag": ""}, "21940": {"id": 21940, "lat": 45.76944, "lng": 21.26611, "p": 0, "name": "Camping International", "town": "Timisoara", "cat": null, "catWidth": 0, "price": "18.75 \u20ac", "rtg": 2.46, "rtgCount": 13, "rtgWidth": 39, "img": "//images-camping.info/CampsiteImages/17720_Thumbnail.jpg", "url": "/rum%c3%a4nien/rum%c3%a4nien-west/camping-international-21940", "affil": [], "prem": false, "tag": ""}, "26621": {"id": 26621, "lat": 45.78567, "lng": 18.78203, "p": 0, "name": "Camping Suza Baranje", "town": "Suza", "cat": null, "catWidth": 0, "price": "10 \u20ac", "rtg": 4.33, "rtgCount": 3, "rtgWidth": 70, "img": "//images-camping.info/CampsiteImages/189347_Thumbnail.jpg", "url": "/kroatien/mittelkroatien-slavonien/camping-suza-baranje-26621", "affil": [], "prem": false, "tag": ""}, "20323": {"id": 20323, "lat": 45.85611, "lng": 18.23861, "p": 0, "name": "Term\u00e1l Kemping Apartmanh\u00e1zak Hark\u00e1ny", "town": "Hark\u00e1ny", "cat": 4, "catWidth": 64, "price": "24 \u20ac", "rtg": 3.33, "rtgCount": 6, "rtgWidth": 54, "img": "//images-camping.info/CampsiteImages/66221_Thumbnail.jpg", "url": "/ungarn/s%c3%bcdtransdanubien/term%c3%a1l-kemping-apartmanh%c3%a1zak-hark%c3%a1ny-20323", "affil": [], "prem": false, "tag": ""}, "23229": {"id": 23229, "lat": 45.99648, "lng": 18.92257, "p": 0, "name": "Davodi Kemping", "town": "Davod", "cat": null, "catWidth": 0, "price": "", "rtg": null, "rtgCount": 0, "rtgWidth": 0, "img": "", "url": "/ungarn/s%c3%bcdtransdanubien/davodi-kemping-23229", "affil": [], "prem": false, "tag": ""}, "22160": {"id": 22160, "lat": 46.10489, "lng": 19.73667, "p": 0, "name": "Camp De Tour", "town": "Pali\u0107", "cat": 2, "catWidth": 32, "price": "22 \u20ac", "rtg": 4.0, "rtgCount": 3, "rtgWidth": 64, "img": "//images-camping.info/CampsiteImages/18059_Thumbnail.jpg", "url": "/serbien/serbien/camp-de-tour-22160", "affil": [], "prem": false, "tag": ""}, "22208": {"id": 22208, "lat": 46.13368, "lng": 21.59807, "p": 0, "name": "Camping Route Roemenie", "town": "Minis", "cat": 5, "catWidth": 80, "price": "16 \u20ac", "rtg": 4.5, "rtgCount": 16, "rtgWidth": 72, "img": "//images-camping.info/CampsiteImages/169440_Thumbnail.jpg", "url": "/rum%c3%a4nien/rum%c3%a4nien-west/camping-route-roemenie-22208", "affil": [], "prem": false, "tag": ""}, "23076": {"id": 23076, "lat": 46.172, "lng": 19.692, "p": 0, "name": "Camping Karavan - Subotica", "town": "Palic", "cat": null, "catWidth": 0, "price": "", "rtg": null, "rtgCount": 0, "rtgWidth": 0, "img": "//images-camping.info/CampsiteImages/18855_Thumbnail.jpg", "url": "/serbien/serbien/camping-karavan-subotica-23076", "affil": [], "prem": false, "tag": ""}, "23093": {"id": 23093, "lat": 46.17492, "lng": 18.22286, "p": 0, "name": "Mediano Thermal Camping", "town": "Koml\u00f3 - Sikonda", "cat": 4, "catWidth": 64, "price": "19 \u20ac", "rtg": 3.0, "rtgCount": 2, "rtgWidth": 48, "img": "//images-camping.info/CampsiteImages/118219_Thumbnail.jpg", "url": "/ungarn/s%c3%bcdtransdanubien/mediano-thermal-camping-23093", "affil": [{"url": "//images-camping.info/_generated/affiliate/campcard_dreh2017.png", "title": "Zur ADAC Campingplatz-Beschreibung mit ADAC CampCard-Preis, G\u00fcltigkeitszeiten und Vorteilsangeboten", "nofollow": "", "deeplink": "https://campingfuehrer.adac.de/campingfuehrer/ungarn-ungarn-ohne-plattenseegebiet-camping-mediano-thermal-hu382.php"}], "prem": false, "tag": ""}, "20415": {"id": 20415, "lat": 46.19111, "lng": 18.14222, "p": 0, "name": "Campingplatz Forr\u00e1s", "town": "Magyarhertelend", "cat": 1, "catWidth": 16, "price": "14.50 \u20ac", "rtg": 4.0, "rtgCount": 1, "rtgWidth": 64, "img": "", "url": "/ungarn/s%c3%bcdtransdanubien/campingplatz-forr%c3%a1s-20415", "affil": [], "prem": false, "tag": ""}, "24401": {"id": 24401, "lat": 46.20407, "lng": 20.46066, "p": 0, "name": "Camping Motel Mak\u00f3", "town": "Mak\u00f3", "cat": 3, "catWidth": 48, "price": "15 \u20ac", "rtg": 3.63, "rtgCount": 8, "rtgWidth": 57, "img": "//images-camping.info/CampsiteImages/62976_Thumbnail.jpg", "url": "/ungarn/s%c3%bcdliche-gro%c3%9fe-tiefebene/camping-motel-mak%c3%b3-24401", "affil": [{"url": "//images-camping.info/_generated/affiliate/campcard_dreh2017.png", "title": "Zur ADAC Campingplatz-Beschreibung mit ADAC CampCard-Preis, G\u00fcltigkeitszeiten und Vorteilsangeboten", "nofollow": "", "deeplink": "https://campingfuehrer.adac.de/campingfuehrer/ungarn-ungarn-ohne-plattenseegebiet-camping-mako-hu347.php"}], "prem": false, "tag": ""}, "23038": {"id": 23038, "lat": 46.23367, "lng": 18.30848, "p": 0, "name": "Camping M\u00e1r\u00e9 V\u00e1ra", "town": "Magyaregregy", "cat": 3, "catWidth": 48, "price": "16.50 \u20ac", "rtg": 4.5, "rtgCount": 2, "rtgWidth": 72, "img": "//images-camping.info/CampsiteImages/18786_Thumbnail.jpg", "url": "/ungarn/s%c3%bcdtransdanubien/camping-m%c3%a1r%c3%a9-v%c3%a1ra-23038", "affil": [], "prem": false, "tag": ""}, "23346": {"id": 23346, "lat": 46.25219, "lng": 20.1574, "p": 0, "name": "Szegedi Partf\u00fcrd\u0151 Kemping \u00e9s Apartman", "town": "Szeged", "cat": 3, "catWidth": 48, "price": "17 \u20ac", "rtg": 2.82, "rtgCount": 11, "rtgWidth": 42, "img": "//images-camping.info/CampsiteImages/164284_Thumbnail.jpg", "url": "/ungarn/s%c3%bcdliche-gro%c3%9fe-tiefebene/szegedi-partf%c3%bcrd%c5%91-kemping-%c3%a9s-apartman-23346", "affil": [], "prem": false, "tag": ""}, "20424": {"id": 20424, "lat": 46.25229, "lng": 20.15899, "p": 0, "name": "Partf\u00fcrd\u00f6 Kemping", "town": "Szeged", "cat": null, "catWidth": 0, "price": "", "rtg": 3.2, "rtgCount": 5, "rtgWidth": 53, "img": "", "url": "/ungarn/s%c3%bcdliche-gro%c3%9fe-tiefebene/partf%c3%bcrd%c3%b6-kemping-20424", "affil": [], "prem": false, "tag": ""}, "20425": {"id": 20425, "lat": 46.26722, "lng": 20.01527, "p": 0, "name": "Sziks\u00f3sf\u00fcrd\u0151i Naturista Strand \u00e9s Kemping", "town": "Szeged-Sziks\u00f3sf\u00fcrd\u0151", "cat": 3, "catWidth": 48, "price": "27 \u20ac", "rtg": 3.67, "rtgCount": 3, "rtgWidth": 57, "img": "//images-camping.info/CampsiteImages/15762_Thumbnail.jpg", "url": "/ungarn/s%c3%bcdliche-gro%c3%9fe-tiefebene/sziks%c3%b3sf%c3%bcrd%c5%91i-naturista-strand-%c3%a9s-kemping-20425", "affil": [], "prem": false, "tag": ""}, "25723": {"id": 25723, "lat": 46.29538, "lng": 18.202, "p": 0, "name": "Camping / Campers Klok", "town": "A'g", "cat": 3, "catWidth": 48, "price": "12.50 \u20ac", "rtg": 3.0, "rtgCount": 1, "rtgWidth": 48, "img": "//images-camping.info/CampsiteImages/127372_Thumbnail.jpg", "url": "/ungarn/s%c3%bcdtransdanubien/camping-campers-klok-25723", "affil": [], "prem": false, "tag": ""}, "20409": {"id": 20409, "lat": 46.41447, "lng": 19.61106, "p": 0, "name": "Oazis Tanya - Poesta camping", "town": "Zsana", "cat": 5, "catWidth": 80, "price": "17 \u20ac", "rtg": 4.33, "rtgCount": 6, "rtgWidth": 70, "img": "//images-camping.info/CampsiteImages/97635_Thumbnail.jpg", "url": "/ungarn/s%c3%bcdliche-gro%c3%9fe-tiefebene/oazis-tanya-poesta-camping-20409", "affil": [], "prem": false, "tag": ""}, "20423": {"id": 20423, "lat": 46.41916, "lng": 20.315, "p": 0, "name": "Term\u00e1l Kemping", "town": "H\u00f3dmez\u00f6v\u00e1s\u00e1rhely", "cat": null, "catWidth": 0, "price": "", "rtg": 4.0, "rtgCount": 1, "rtgWidth": 64, "img": "", "url": "/ungarn/s%c3%bcdliche-gro%c3%9fe-tiefebene/term%c3%a1l-kemping-20423", "affil": [], "prem": false, "tag": ""}, "20369": {"id": 20369, "lat": 46.43083, "lng": 19.47138, "p": 0, "name": "Napf\u00e9ny Therm\u00e1l Camping", "town": "Kiskunhalas", "cat": 3, "catWidth": 48, "price": "", "rtg": 5.0, "rtgCount": 1, "rtgWidth": 80, "img": "", "url": "/ungarn/s%c3%bcdliche-gro%c3%9fe-tiefebene/napf%c3%a9ny-therm%c3%a1l-camping-20369", "affil": [], "prem": false, "tag": ""}, "20356": {"id": 20356, "lat": 46.44958, "lng": 20.05295, "p": 0, "name": "Bal\u00e1stya Beach", "town": "Bal\u00e1stya", "cat": 3, "catWidth": 48, "price": "16 \u20ac", "rtg": 3.5, "rtgCount": 2, "rtgWidth": 56, "img": "//images-camping.info/CampsiteImages/15692_Thumbnail.jpg", "url": "/ungarn/s%c3%bcdliche-gro%c3%9fe-tiefebene/bal%c3%a1stya-beach-20356", "affil": [], "prem": false, "tag": ""}, "20406": {"id": 20406, "lat": 46.52166, "lng": 19.74805, "p": 0, "name": "Camping Jonatherm\u00e1l", "town": "Kiskunmajsa", "cat": 3, "catWidth": 48, "price": "", "rtg": 4.33, "rtgCount": 9, "rtgWidth": 70, "img": "//images-camping.info/CampsiteImages/44152_Thumbnail.jpg", "url": "/ungarn/s%c3%bcdliche-gro%c3%9fe-tiefebene/camping-jonatherm%c3%a1l-20406", "affil": [], "prem": false, "tag": ""}, "24556": {"id": 24556, "lat": 44.04444, "lng": 20.06306, "p": 0, "name": "Ranch Orlovo Gnezdo", "town": "Tometino polje", "cat": null, "catWidth": 0, "price": "", "rtg": null, "rtgCount": 0, "rtgWidth": 0, "img": "//images-camping.info/CampsiteImages/69653_Thumbnail.jpg", "url": "/serbien/serbien/ranch-orlovo-gnezdo-24556", "affil": [], "prem": false, "tag": ""}, "24554": {"id": 24554, "lat": 44.23806, "lng": 19.64, "p": 0, "name": "Camping Vlasina", "town": "Vlasina", "cat": null, "catWidth": 0, "price": "", "rtg": null, "rtgCount": 0, "rtgWidth": 0, "img": "", "url": "/serbien/serbien/camping-vlasina-24554", "affil": [], "prem": false, "tag": ""}, "24548": {"id": 24548, "lat": 44.5325, "lng": 18.5511, "p": 0, "name": "Camping Ontario", "town": "Lukavac", "cat": null, "catWidth": 0, "price": "15 \u20ac", "rtg": 2.33, "rtgCount": 3, "rtgWidth": 38, "img": "", "url": "/bosnien-herzegowina/bosnien-herzegowina/camping-ontario-24548", "affil": [], "prem": false, "tag": ""}, "25872": {"id": 25872, "lat": 44.57756, "lng": 20.38827, "p": 0, "name": "Camping Zornica House", "town": "Bacevac, Belgrade", "cat": 3, "catWidth": 48, "price": "22 \u20ac", "rtg": 4.0, "rtgCount": 10, "rtgWidth": 64, "img": "//images-camping.info/CampsiteImages/205566_Thumbnail.jpg", "url": "/serbien/serbien/camping-zornica-house-25872", "affil": [], "prem": false, "tag": ""}, "25932": {"id": 25932, "lat": 43.72332, "lng": 19.80354, "p": 0, "name": "Camping Iva", "town": "Zlatibor-\u010cajetina", "cat": null, "catWidth": 0, "price": "", "rtg": null, "rtgCount": 0, "rtgWidth": 0, "img": "//images-camping.info/CampsiteImages/138563_Thumbnail.jpg", "url": "/serbien/serbien/camping-iva-25932", "affil": [], "prem": false, "tag": ""}, "27175": {"id": 27175, "lat": 43.76021, "lng": 19.4591, "p": 0, "name": "Camping River", "town": "Donje Vardi\u0161te", "cat": null, "catWidth": 0, "price": "", "rtg": 5.0, "rtgCount": 1, "rtgWidth": 80, "img": "//images-camping.info/CampsiteImages/234408_Thumbnail.jpg", "url": "/bosnien-herzegowina/bosnien-herzegowina/camping-river-27175", "affil": [], "prem": false, "tag": ""}, "24571": {"id": 24571, "lat": 43.50075, "lng": 18.77632, "p": 0, "name": "Kamp Sastavci", "town": "Fo\u010da", "cat": null, "catWidth": 0, "price": "", "rtg": null, "rtgCount": 0, "rtgWidth": 0, "img": "//images-camping.info/CampsiteImages/69750_Thumbnail.jpg", "url": "/bosnien-herzegowina/bosnien-herzegowina/kamp-sastavci-24571", "affil": [], "prem": false, "tag": ""}, "24365": {"id": 24365, "lat": 43.52958, "lng": 18.78325, "p": 0, "name": "Auto Camp Drina", "town": "Foca", "cat": 3, "catWidth": 48, "price": "17.50 \u20ac", "rtg": 4.46, "rtgCount": 13, "rtgWidth": 71, "img": "//images-camping.info/CampsiteImages/60623_Thumbnail.jpg", "url": "/bosnien-herzegowina/bosnien-herzegowina/auto-camp-drina-24365", "affil": [], "prem": false, "tag": ""}, "26747": {"id": 26747, "lat": 43.83879, "lng": 18.26372, "p": 0, "name": "Camping Sarajevo", "town": "Ilid\u017ea ", "cat": 3, "catWidth": 48, "price": "20 \u20ac", "rtg": 4.87, "rtgCount": 15, "rtgWidth": 74, "img": "//images-camping.info/CampsiteImages/195399_Thumbnail.jpg", "url": "/bosnien-herzegowina/bosnien-herzegowina/camping-sarajevo-26747", "affil": [], "prem": false, "tag": ""}, "27036": {"id": 27036, "lat": 43.84407, "lng": 18.41797, "p": 0, "name": "Front Camping", "town": "Sarajevo", "cat": 4, "catWidth": 64, "price": "16 \u20ac", "rtg": 5.0, "rtgCount": 5, "rtgWidth": 80, "img": "//images-camping.info/CampsiteImages/218703_Thumbnail.jpg", "url": "/bosnien-herzegowina/bosnien-herzegowina/front-camping-27036", "affil": [], "prem": false, "tag": ""}, "24713": {"id": 24713, "lat": 43.84673, "lng": 19.57673, "p": 0, "name": "Camping Viljamovka", "town": "Kremna", "cat": 4, "catWidth": 64, "price": "", "rtg": 4.23, "rtgCount": 13, "rtgWidth": 69, "img": "//images-camping.info/CampsiteImages/78173_Thumbnail.jpg", "url": "/serbien/serbien/camping-viljamovka-24713", "affil": [], "prem": false, "tag": ""}, "26373": {"id": 26373, "lat": 43.86456, "lng": 18.43629, "p": 0, "name": "Tower Hill Camp ", "town": "Sarajevo", "cat": 1, "catWidth": 16, "price": "13 \u20ac", "rtg": 1.0, "rtgCount": 1, "rtgWidth": 16, "img": "//images-camping.info/CampsiteImages/165211_Thumbnail.jpg", "url": "/bosnien-herzegowina/bosnien-herzegowina/tower-hill-camp-26373", "affil": [], "prem": false, "tag": ""}, "26804": {"id": 26804, "lat": 43.86631, "lng": 18.4352, "p": 0, "name": "Kevser Camping", "town": "Sarajevo", "cat": 4, "catWidth": 64, "price": "14 \u20ac", "rtg": null, "rtgCount": 0, "rtgWidth": 0, "img": "//images-camping.info/CampsiteImages/198896_Thumbnail.jpg", "url": "/bosnien-herzegowina/bosnien-herzegowina/kevser-camping-26804", "affil": [], "prem": false, "tag": ""}, "24557": {"id": 24557, "lat": 43.95472, "lng": 19.45083, "p": 0, "name": "Camping Peru\u0107ac", "town": "Peru\u0107ac", "cat": null, "catWidth": 0, "price": "", "rtg": 4.0, "rtgCount": 1, "rtgWidth": 64, "img": "", "url": "/serbien/serbien/camping-peru%c4%87ac-24557", "affil": [], "prem": false, "tag": ""}, "26304": {"id": 26304, "lat": 43.95915, "lng": 21.26543, "p": 0, "name": "Camping Ruza Vetrova", "town": "Jagodina", "cat": null, "catWidth": 0, "price": "20 \u20ac", "rtg": 4.2, "rtgCount": 5, "rtgWidth": 69, "img": "//images-camping.info/CampsiteImages/165670_Thumbnail.jpg", "url": "/serbien/serbien/camping-ruza-vetrova-26304", "affil": [], "prem": false, "tag": ""}, "20319": {"id": 20319, "lat": 46.79361, "lng": 17.73472, "p": 1, "name": "Balatontourist Vadvir\u00e1g Kemping \u00e9s \u00dcd\u00fcl\u0151falu", "town": "Balatonszemes", "cat": 3, "catWidth": 48, "price": "20 \u20ac", "rtg": 3.93, "rtgCount": 15, "rtgWidth": 59, "img": "//images-camping.info/CampsiteImages/84540_Thumbnail.jpg", "url": "/ungarn/s%c3%bcdtransdanubien/balatontourist-vadvir%c3%a1g-kemping-%c3%a9s-%c3%bcd%c3%bcl%c5%91falu-20319", "affil": [{"url": "//images-camping.info/_generated/affiliate/cca-acsi-logo-resultspage39.png", "title": "CampingCard ACSI - bis zu 50 % Rabatt", "nofollow": "", "deeplink": "http://www.campingcard.com/de/ungarn/somogy/balatonszemes/balatontourist-cp-bungalows-vadvirag-104524/"}], "prem": true, "tag": null}, "20283": {"id": 20283, "lat": 46.97638, "lng": 17.95583, "p": 1, "name": "Pelso Camping Als\u00f3\u00f6rs", "town": "Als\u00f3\u00f6rs", "cat": 4, "catWidth": 64, "price": "22.20 \u20ac", "rtg": 3.0, "rtgCount": 3, "rtgWidth": 48, "img": "//images-camping.info/CampsiteImages/199596_Thumbnail.jpg", "url": "/ungarn/mitteltransdanubien/pelso-camping-als%c3%b3%c3%b6rs-20283", "affil": [{"url": "//images-camping.info/_generated/affiliate/cca-acsi-logo-resultspage39.png", "title": "CampingCard ACSI - bis zu 50 % Rabatt", "nofollow": "", "deeplink": "http://www.campingcard.com/de/ungarn/veszprem/alsoors/camping-pelso-camping-104514/"}, {"url": "//images-camping.info/_generated/affiliate/logo-vacanceselect.png", "title": "CampingSelection", "nofollow": "", "deeplink": "https://www.vacanceselect.com/de/camping/ungarn/balaton/camping-pelso/51485"}, {"url": "//images-camping.info/_generated/affiliate/02-vde-logo-with-caption-web-80px.png", "title": "Vacansoleil", "nofollow": "", "deeplink": "http://www.vacansoleil.de/camping/info/ungarn-balatonsee/alsoors-paloznak/campingplatz-europa/VDE/3/2421001/"}, {"url": "//images-camping.info/_generated/affiliate/campcard_dreh2017.png", "title": "Zur ADAC Campingplatz-Beschreibung mit ADAC CampCard-Preis, G\u00fcltigkeitszeiten und Vorteilsangeboten", "nofollow": "", "deeplink": "https://campingfuehrer.adac.de/campingfuehrer/ungarn-balaton-plattensee-pelso-camping-hp185.php"}], "prem": true, "tag": null}, "24364": {"id": 24364, "lat": 47.50096, "lng": 19.15775, "p": 1, "name": "Arena Camping - Budapest", "town": "Budapest", "cat": 3, "catWidth": 48, "price": "20 \u20ac", "rtg": 4.59, "rtgCount": 32, "rtgWidth": 72, "img": "//images-camping.info/CampsiteImages/60488_Thumbnail.jpg", "url": "/ungarn/mittelungarn/arena-camping-budapest-24364", "affil": [{"url": "//images-camping.info/_generated/affiliate/cca-acsi-logo-resultspage39.png", "title": "CampingCard ACSI - bis zu 50 % Rabatt", "nofollow": "", "deeplink": "http://www.campingcard.com/de/ungarn/budapest/budapest/arena-camping-guesthouse-budapest-119303/"}, {"url": "//images-camping.info/_generated/affiliate/campcard_dreh2017.png", "title": "Zur ADAC Campingplatz-Beschreibung mit ADAC CampCard-Preis, G\u00fcltigkeitszeiten und Vorteilsangeboten", "nofollow": "", "deeplink": "https://campingfuehrer.adac.de/campingfuehrer/ungarn-ungarn-ohne-plattenseegebiet-arena-camping-budapest-hu184.php"}], "prem": true, "tag": "Camping in gr\u00fcner Umgebung im Herz von Budapest!"}, "25526": {"id": 25526, "lat": 47.24182, "lng": 17.14317, "p": 1, "name": "JUFA Vulk\u00e1n F\u00fcrd\u0151 Resort Kemping****", "town": "Celld\u00f6m\u00f6lk", "cat": 4, "catWidth": 64, "price": "34 \u20ac", "rtg": 4.62, "rtgCount": 21, "rtgWidth": 72, "img": "//images-camping.info/CampsiteImages/158945_Thumbnail.jpg", "url": "/ungarn/westtransdanubien/jufa-vulk%c3%a1n-f%c3%bcrd%c5%91-resort-kemping-25526", "affil": [], "prem": true, "tag": "Camping im Ungarischen Thermenland - direkt bei der Thermenanlage!"}, "20457": {"id": 20457, "lat": 46.76417, "lng": 17.30139, "p": 1, "name": "Camping Wellness Park", "town": "Gyenesdi\u00e1s", "cat": 5, "catWidth": 80, "price": "18.80 \u20ac", "rtg": 4.34, "rtgCount": 44, "rtgWidth": 70, "img": "//images-camping.info/CampsiteImages/67352_Thumbnail.jpg", "url": "/ungarn/westtransdanubien/camping-wellness-park-20457", "affil": [{"url": "//images-camping.info/_generated/affiliate/cca-acsi-logo-resultspage39.png", "title": "CampingCard ACSI - bis zu 50 % Rabatt", "nofollow": "", "deeplink": "http://www.campingcard.com/de/ungarn/zala/gyenesdias/wellness-park-camping-114132/"}], "prem": true, "tag": "Der sch\u00f6nste und g\u00fcnstigste Campingplatz der Balaton Region"}, "23330": {"id": 23330, "lat": 46.76483, "lng": 17.2908, "p": 0, "name": "Tulipan Bungalow Camping Resort ", "town": "Gyenesdi\u00e1s", "cat": null, "catWidth": 0, "price": "", "rtg": null, "rtgCount": 0, "rtgWidth": 0, "img": "", "url": "/ungarn/westtransdanubien/tulipan-bungalow-camping-resort-23330", "affil": [], "prem": false, "tag": ""}, "20456": {"id": 20456, "lat": 46.76494, "lng": 17.28939, "p": 0, "name": "Caravan Camping", "town": "Gyenesdi\u00e1s", "cat": 3, "catWidth": 48, "price": "23 \u20ac", "rtg": 4.36, "rtgCount": 11, "rtgWidth": 70, "img": "//images-camping.info/CampsiteImages/15818_Thumbnail.jpg", "url": "/ungarn/westtransdanubien/caravan-camping-20456", "affil": [], "prem": false, "tag": ""}, "20294": {"id": 20294, "lat": 46.7662, "lng": 17.25471, "p": 0, "name": "Camping G\u00e4rtnerhof", "town": "Keszthely", "cat": 3, "catWidth": 48, "price": "14 \u20ac", "rtg": 5.0, "rtgCount": 1, "rtgWidth": 80, "img": "//images-camping.info/CampsiteImages/232923_Thumbnail.jpg", "url": "/ungarn/westtransdanubien/camping-g%c3%a4rtnerhof-20294", "affil": [], "prem": false, "tag": ""}, "20269": {"id": 20269, "lat": 46.76722, "lng": 17.25972, "p": 0, "name": "Castrum Camping", "town": "Keszthely", "cat": 4, "catWidth": 64, "price": "", "rtg": 4.15, "rtgCount": 13, "rtgWidth": 69, "img": "//images-camping.info/CampsiteImages/15449_Thumbnail.jpg", "url": "/ungarn/westtransdanubien/castrum-camping-20269", "affil": [{"url": "//images-camping.info/_generated/affiliate/camping-travel-club-logo_100.png", "title": "Camping Travel Club", "nofollow": "", "deeplink": "https://www.campingtravelclub.de/controllers/campings.php?fc=detail&n=11621"}, {"url": "//images-camping.info/_generated/affiliate/cca-acsi-logo-resultspage39.png", "title": "CampingCard ACSI - bis zu 50 % Rabatt", "nofollow": "", "deeplink": "http://www.campingcard.com/de/ungarn/zala/keszthely/camping-castrum-100579/"}, {"url": "//images-camping.info/_generated/affiliate/campcard_dreh2017.png", "title": "Zur ADAC Campingplatz-Beschreibung mit ADAC CampCard-Preis, G\u00fcltigkeitszeiten und Vorteilsangeboten", "nofollow": "", "deeplink": "https://campingfuehrer.adac.de/campingfuehrer/ungarn-balaton-plattensee-camping-castrum-keszthely-hp122.php"}], "prem": false, "tag": ""}, "26498": {"id": 26498, "lat": 46.76766, "lng": 19.77047, "p": 0, "name": "Minicamping Tanyariaad", "town": "Kiskunf\u00e9legyh\u00e1za", "cat": 4, "catWidth": 64, "price": "", "rtg": 5.0, "rtgCount": 1, "rtgWidth": 80, "img": "//images-camping.info/CampsiteImages/176628_Thumbnail.jpg", "url": "/ungarn/s%c3%bcdliche-gro%c3%9fe-tiefebene/minicamping-tanyariaad-26498", "affil": [], "prem": false, "tag": ""}, "20268": {"id": 20268, "lat": 46.76861, "lng": 17.36527, "p": 0, "name": "Castrum Camping", "town": "Balatongy\u00f6r\u00f6k", "cat": 4, "catWidth": 64, "price": "", "rtg": 3.0, "rtgCount": 6, "rtgWidth": 48, "img": "//images-camping.info/CampsiteImages/15445_Thumbnail.jpg", "url": "/ungarn/westtransdanubien/castrum-camping-20268", "affil": [{"url": "//images-camping.info/_generated/affiliate/camping-travel-club-logo_100.png", "title": "Camping Travel Club", "nofollow": "", "deeplink": "https://www.campingtravelclub.de/controllers/campings.php?fc=detail&n=11620"}], "prem": false, "tag": ""}, "20318": {"id": 20318, "lat": 46.78, "lng": 17.64527, "p": 0, "name": "Sell\u0151 Kemping", "town": "Balatonbogl\u00e1r", "cat": 3, "catWidth": 48, "price": "", "rtg": 3.57, "rtgCount": 7, "rtgWidth": 56, "img": "", "url": "/ungarn/s%c3%bcdtransdanubien/sell%c5%91-kemping-20318", "affil": [], "prem": false, "tag": ""}, "20271": {"id": 20271, "lat": 46.7836, "lng": 17.19566, "p": 0, "name": "Castrum Gy\u00f3gykemping", "town": "H\u00e9v\u00edz", "cat": 4, "catWidth": 64, "price": "24 \u20ac", "rtg": 3.93, "rtgCount": 14, "rtgWidth": 59, "img": "//images-camping.info/CampsiteImages/15453_Thumbnail.jpg", "url": "/ungarn/westtransdanubien/castrum-gy%c3%b3gykemping-20271", "affil": [], "prem": false, "tag": ""}, "20329": {"id": 20329, "lat": 46.78397, "lng": 17.49891, "p": 0, "name": "Badacsony Camping", "town": "Badacsony", "cat": 4, "catWidth": 64, "price": "28 \u20ac", "rtg": 4.75, "rtgCount": 4, "rtgWidth": 74, "img": "//images-camping.info/CampsiteImages/173892_Thumbnail.jpg", "url": "/ungarn/mitteltransdanubien/badacsony-camping-20329", "affil": [], "prem": false, "tag": ""}, "22166": {"id": 22166, "lat": 46.78458, "lng": 17.15112, "p": 0, "name": "Fortuna Camping", "town": "H\u00e9v\u00edz-Fels\u0151p\u00e1hok", "cat": null, "catWidth": 0, "price": "13.70 \u20ac", "rtg": 4.0, "rtgCount": 1, "rtgWidth": 64, "img": "//images-camping.info/CampsiteImages/18069_Thumbnail.jpg", "url": "/ungarn/westtransdanubien/fortuna-camping-22166", "affil": [], "prem": false, "tag": ""}, "20298": {"id": 20298, "lat": 46.78888, "lng": 17.47444, "p": 0, "name": "Balaton Eldorado Camping", "town": "Badacsonyl\u00e1bdihegy", "cat": 4, "catWidth": 64, "price": "30 \u20ac", "rtg": 4.4, "rtgCount": 20, "rtgWidth": 71, "img": "//images-camping.info/CampsiteImages/148495_Thumbnail.jpg", "url": "/ungarn/mitteltransdanubien/balaton-eldorado-camping-20298", "affil": [], "prem": false, "tag": ""}, "20296": {"id": 20296, "lat": 46.79054, "lng": 17.385, "p": 0, "name": "Delta Camping", "town": "Balatonederics", "cat": 3, "catWidth": 48, "price": "16 \u20ac", "rtg": 3.5, "rtgCount": 2, "rtgWidth": 56, "img": "//images-camping.info/CampsiteImages/15532_Thumbnail.jpg", "url": "/ungarn/westtransdanubien/delta-camping-20296", "affil": [], "prem": false, "tag": ""}, "20317": {"id": 20317, "lat": 47.2475, "lng": 16.94639, "p": 0, "name": "Thermal Camping S\u00e1rv\u00e1r", "town": "S\u00e1rv\u00e1r", "cat": 4, "catWidth": 64, "price": "28.40 \u20ac", "rtg": 4.32, "rtgCount": 37, "rtgWidth": 70, "img": "//images-camping.info/CampsiteImages/15593_Thumbnail.jpg", "url": "/ungarn/westtransdanubien/thermal-camping-s%c3%a1rv%c3%a1r-20317", "affil": [{"url": "//images-camping.info/_generated/affiliate/campcard_dreh2017.png", "title": "Zur ADAC Campingplatz-Beschreibung mit ADAC CampCard-Preis, G\u00fcltigkeitszeiten und Vorteilsangeboten", "nofollow": "", "deeplink": "https://campingfuehrer.adac.de/campingfuehrer/ungarn-ungarn-ohne-plattenseegebiet-thermal-camping-sarvar-hu245.php"}], "prem": false, "tag": ""}, "20427": {"id": 20427, "lat": 47.24833, "lng": 18.65833, "p": 0, "name": "Strand kemping", "town": "Si\u00f3fok", "cat": null, "catWidth": 0, "price": "21.92 \u20ac", "rtg": null, "rtgCount": 0, "rtgWidth": 0, "img": "", "url": "/ungarn/mittelungarn/strand-kemping-20427", "affil": [], "prem": false, "tag": ""}, "20443": {"id": 20443, "lat": 47.25033, "lng": 19.09972, "p": 0, "name": "Naturista O\u00e1zis Kemping", "town": "D\u00e9legyh\u00e1za", "cat": 2, "catWidth": 32, "price": "25 \u20ac", "rtg": 5.0, "rtgCount": 1, "rtgWidth": 80, "img": "//images-camping.info/CampsiteImages/163057_Thumbnail.jpg", "url": "/ungarn/mittelungarn/naturista-o%c3%a1zis-kemping-20443", "affil": [], "prem": false, "tag": ""}, "23738": {"id": 23738, "lat": 47.2522, "lng": 19.10179, "p": 0, "name": "Tavir\u00f3zsa Kemping", "town": "D\u00e9legyh\u00e1za", "cat": 4, "catWidth": 64, "price": "16 \u20ac", "rtg": 1.0, "rtgCount": 1, "rtgWidth": 16, "img": "//images-camping.info/CampsiteImages/43355_Thumbnail.jpg", "url": "/ungarn/mittelungarn/tavir%c3%b3zsa-kemping-23738", "affil": [], "prem": false, "tag": ""}, "26943": {"id": 26943, "lat": 47.25829, "lng": 17.87535, "p": 0, "name": "Bagolyv\u00e1r Fogad\u00f3 & Bakonyi Camping ", "town": "Zirc", "cat": null, "catWidth": 0, "price": "", "rtg": null, "rtgCount": 0, "rtgWidth": 0, "img": "//images-camping.info/CampsiteImages/212412_Thumbnail.jpg", "url": "/ungarn/mitteltransdanubien/bagolyv%c3%a1r-fogad%c3%b3-bakonyi-camping-26943", "affil": [], "prem": false, "tag": ""}, "20444": {"id": 20444, "lat": 47.28572, "lng": 19.10101, "p": 0, "name": "Rukkel-t\u00f3 Waterpark", "town": "Dunavars\u00e1ny", "cat": 2, "catWidth": 32, "price": "20 \u20ac", "rtg": 1.0, "rtgCount": 1, "rtgWidth": 16, "img": "//images-camping.info/CampsiteImages/15806_Thumbnail.jpg", "url": "/ungarn/mittelungarn/rukkel-t%c3%b3-waterpark-20444", "affil": [], "prem": false, "tag": ""}, "20449": {"id": 20449, "lat": 47.33861, "lng": 17.47388, "p": 0, "name": "Term\u00e1lcamping P\u00e1pa", "town": "P\u00e1pa", "cat": 5, "catWidth": 80, "price": "33.70 \u20ac", "rtg": 4.74, "rtgCount": 132, "rtgWidth": 73, "img": "//images-camping.info/CampsiteImages/120822_Thumbnail.jpg", "url": "/ungarn/mitteltransdanubien/term%c3%a1lcamping-p%c3%a1pa-20449", "affil": [{"url": "//images-camping.info/_generated/affiliate/logo-award-border_affiliate_71px.png", "title": "Camping.Info Award", "nofollow": "", "deeplink": "http://www.camping.info/award"}, {"url": "//images-camping.info/_generated/affiliate/campcard_dreh2017.png", "title": "Zur ADAC Campingplatz-Beschreibung mit ADAC CampCard-Preis, G\u00fcltigkeitszeiten und Vorteilsangeboten", "nofollow": "", "deeplink": "https://campingfuehrer.adac.de/campingfuehrer/ungarn-ungarn-ohne-plattenseegebiet-thermal-camping-papa-hu230.php"}], "prem": false, "tag": ""}, "20300": {"id": 20300, "lat": 47.35051, "lng": 19.19835, "p": 0, "name": "Galopp Major ", "town": "Gy\u00e1l", "cat": 2, "catWidth": 32, "price": "20 \u20ac", "rtg": 5.0, "rtgCount": 1, "rtgWidth": 80, "img": "", "url": "/ungarn/mittelungarn/galopp-major-20300", "affil": [], "prem": false, "tag": ""}, "20360": {"id": 20360, "lat": 47.39444, "lng": 18.93583, "p": 0, "name": "Blue Flaming\u00f3 Camping", "town": "\u00c9rd", "cat": null, "catWidth": 0, "price": "", "rtg": 4.0, "rtgCount": 5, "rtgWidth": 64, "img": "", "url": "/ungarn/mittelungarn/blue-flaming%c3%b3-camping-20360", "affil": [{"url": "//images-camping.info/_generated/affiliate/campcard_dreh2017.png", "title": "Zur ADAC Campingplatz-Beschreibung mit ADAC CampCard-Preis, G\u00fcltigkeitszeiten und Vorteilsangeboten", "nofollow": "", "deeplink": "https://campingfuehrer.adac.de/campingfuehrer/ungarn-ungarn-ohne-plattenseegebiet-flamingo-camping-hu190.php"}], "prem": false, "tag": ""}, "20277": {"id": 20277, "lat": 47.43166, "lng": 18.90083, "p": 0, "name": "Fortuna Kemping \u00e9s Apartman", "town": "T\u00f6r\u00f6kb\u00e1lint", "cat": 4, "catWidth": 64, "price": "", "rtg": 3.0, "rtgCount": 3, "rtgWidth": 48, "img": "", "url": "/ungarn/mittelungarn/fortuna-kemping-%c3%a9s-apartman-20277", "affil": [], "prem": false, "tag": ""}, "22288": {"id": 22288, "lat": 47.46158, "lng": 17.09138, "p": 0, "name": "Camping-Eldorado Beled Kft", "town": "Beled", "cat": 3, "catWidth": 48, "price": "15 \u20ac", "rtg": 4.5, "rtgCount": 4, "rtgWidth": 72, "img": "//images-camping.info/CampsiteImages/171522_Thumbnail.jpg", "url": "/ungarn/westtransdanubien/camping-eldorado-beled-kft-22288", "affil": [], "prem": false, "tag": ""}, "20442": {"id": 20442, "lat": 47.4725, "lng": 18.81611, "p": 0, "name": "Campingplatz Margar\u00e9ta-Bia", "town": "Biatorb\u00e1gy", "cat": 3, "catWidth": 48, "price": "25 \u20ac", "rtg": 5.0, "rtgCount": 3, "rtgWidth": 80, "img": "//images-camping.info/CampsiteImages/15799_Thumbnail.jpg", "url": "/ungarn/mittelungarn/campingplatz-margar%c3%a9ta-bia-20442", "affil": [], "prem": false, "tag": ""}, "25090": {"id": 25090, "lat": 47.47376, "lng": 19.03056, "p": 0, "name": "Shantee Mini Camp", "town": "Budapest", "cat": 2, "catWidth": 32, "price": "20 \u20ac", "rtg": 5.0, "rtgCount": 1, "rtgWidth": 80, "img": "//images-camping.info/CampsiteImages/106183_Thumbnail.jpg", "url": "/ungarn/mittelungarn/shantee-mini-camp-25090", "affil": [], "prem": false, "tag": ""}, "20378": {"id": 20378, "lat": 47.47591, "lng": 19.08281, "p": 0, "name": "CAMPING HALLER", "town": "Budapest", "cat": 2, "catWidth": 32, "price": "23 \u20ac", "rtg": 3.96, "rtgCount": 26, "rtgWidth": 59, "img": "//images-camping.info/CampsiteImages/57467_Thumbnail.jpg", "url": "/ungarn/mittelungarn/camping-haller-20378", "affil": [{"url": "//images-camping.info/_generated/affiliate/cca-acsi-logo-resultspage39.png", "title": "CampingCard ACSI - bis zu 50 % Rabatt", "nofollow": "", "deeplink": "http://www.campingcard.com/de/ungarn/budapest/budapest/haller-camping-113213/"}, {"url": "//images-camping.info/_generated/affiliate/campcard_dreh2017.png", "title": "Zur ADAC Campingplatz-Beschreibung mit ADAC CampCard-Preis, G\u00fcltigkeitszeiten und Vorteilsangeboten", "nofollow": "", "deeplink": "https://campingfuehrer.adac.de/campingfuehrer/ungarn-ungarn-ohne-plattenseegebiet-haller-camping-hu176.php"}], "prem": false, "tag": ""}, "20335": {"id": 20335, "lat": 47.48023, "lng": 19.0984, "p": 0, "name": "Bikercamp Camping in the center of Budapest", "town": "Budapest", "cat": 5, "catWidth": 80, "price": "20 \u20ac", "rtg": 5.0, "rtgCount": 2, "rtgWidth": 80, "img": "//images-camping.info/CampsiteImages/44132_Thumbnail.jpg", "url": "/ungarn/mittelungarn/bikercamp-camping-in-the-center-of-budapest-20335", "affil": [], "prem": false, "tag": ""}, "25046": {"id": 25046, "lat": 47.51449, "lng": 18.97265, "p": 0, "name": "Ave Natura Camping Budapest", "town": "Budapest", "cat": null, "catWidth": 0, "price": "22 \u20ac", "rtg": 4.38, "rtgCount": 8, "rtgWidth": 71, "img": "//images-camping.info/CampsiteImages/106152_Thumbnail.jpg", "url": "/ungarn/mittelungarn/ave-natura-camping-budapest-25046", "affil": [], "prem": false, "tag": ""}, "20445": {"id": 20445, "lat": 47.51626, "lng": 18.97402, "p": 0, "name": "Zugligeti Niche Camping", "town": "Budapest", "cat": 3, "catWidth": 48, "price": "26 \u20ac", "rtg": 4.21, "rtgCount": 14, "rtgWidth": 69, "img": "//images-camping.info/CampsiteImages/41693_Thumbnail.jpg", "url": "/ungarn/mittelungarn/zugligeti-niche-camping-20445", "affil": [{"url": "//images-camping.info/_generated/affiliate/cca-acsi-logo-resultspage39.png", "title": "CampingCard ACSI - bis zu 50 % Rabatt", "nofollow": "", "deeplink": "http://www.campingcard.com/de/ungarn/budapest/budapest/zugligeti-niche-camping-100573/"}, {"url": "//images-camping.info/_generated/affiliate/campcard_dreh2017.png", "title": "Zur ADAC Campingplatz-Beschreibung mit ADAC CampCard-Preis, G\u00fcltigkeitszeiten und Vorteilsangeboten", "nofollow": "", "deeplink": "https://campingfuehrer.adac.de/campingfuehrer/ungarn-ungarn-ohne-plattenseegebiet-zugligeti-niche-camping-hu182.php"}], "prem": false, "tag": ""}, "20374": {"id": 20374, "lat": 47.52444, "lng": 20.14305, "p": 0, "name": "T\u00f6lgyes Kemping", "town": "J\u00e1szap\u00e1ti", "cat": 3, "catWidth": 48, "price": "", "rtg": 5.0, "rtgCount": 2, "rtgWidth": 80, "img": "//images-camping.info/CampsiteImages/95367_Thumbnail.jpg", "url": "/ungarn/n%c3%b6rdliche-gro%c3%9fe-tiefebene/t%c3%b6lgyes-kemping-20374", "affil": [], "prem": false, "tag": ""}, "20345": {"id": 20345, "lat": 47.55271, "lng": 18.44482, "p": 0, "name": "Nom\u00e1d Camping Nyaral\u00f3h\u00e1zai", "town": "Tatab\u00e1nya", "cat": 2, "catWidth": 32, "price": "", "rtg": null, "rtgCount": 0, "rtgWidth": 0, "img": "//images-camping.info/CampsiteImages/15668_Thumbnail.jpg", "url": "/ungarn/mitteltransdanubien/nom%c3%a1d-camping-nyaral%c3%b3h%c3%a1zai-20345", "affil": [], "prem": false, "tag": ""}, "24659": {"id": 24659, "lat": 47.57412, "lng": 19.05207, "p": 0, "name": "R\u00f3mai Camping", "town": "Budapest", "cat": 2, "catWidth": 32, "price": "", "rtg": 1.33, "rtgCount": 3, "rtgWidth": 22, "img": "", "url": "/ungarn/mittelungarn/r%c3%b3mai-camping-24659", "affil": [], "prem": false, "tag": ""}, "20372": {"id": 20372, "lat": 47.58222, "lng": 20.16916, "p": 0, "name": "Term\u00e1l Kemping", "town": "J\u00e1szszentandr\u00e1s", "cat": 3, "catWidth": 48, "price": "", "rtg": 4.33, "rtgCount": 3, "rtgWidth": 70, "img": "", "url": "/ungarn/n%c3%b6rdliche-gro%c3%9fe-tiefebene/term%c3%a1l-kemping-20372", "affil": [], "prem": false, "tag": ""}, "20361": {"id": 20361, "lat": 47.59149, "lng": 20.18579, "p": 0, "name": "Romantik Park Kemping", "town": "J\u00e1szszentandr\u00e1s", "cat": 3, "catWidth": 48, "price": "", "rtg": null, "rtgCount": 0, "rtgWidth": 0, "img": "", "url": "/ungarn/n%c3%b6rdliche-gro%c3%9fe-tiefebene/romantik-park-kemping-20361", "affil": [], "prem": false, "tag": ""}, "24516": {"id": 24516, "lat": 47.59871, "lng": 17.03612, "p": 0, "name": "Magdalena Camping", "town": "Kapuv\u00e1r", "cat": null, "catWidth": 0, "price": "", "rtg": 4.29, "rtgCount": 7, "rtgWidth": 70, "img": "//images-camping.info/CampsiteImages/68147_Thumbnail.jpg", "url": "/ungarn/westtransdanubien/magdalena-camping-24516", "affil": [], "prem": false, "tag": ""}, "20368": {"id": 20368, "lat": 47.60056, "lng": 19.01833, "p": 0, "name": "Jumbo Kemping", "town": "\u00dcr\u00f6m", "cat": 3, "catWidth": 48, "price": "", "rtg": 2.0, "rtgCount": 1, "rtgWidth": 32, "img": "", "url": "/ungarn/mittelungarn/jumbo-kemping-20368", "affil": [{"url": "//images-camping.info/_generated/affiliate/campcard_dreh2017.png", "title": "Zur ADAC Campingplatz-Beschreibung mit ADAC CampCard-Preis, G\u00fcltigkeitszeiten und Vorteilsangeboten", "nofollow": "", "deeplink": "https://campingfuehrer.adac.de/campingfuehrer/ungarn-ungarn-ohne-plattenseegebiet-camping-jumbo-hu173.php"}], "prem": false, "tag": ""}, "20299": {"id": 20299, "lat": 47.66694, "lng": 18.30972, "p": 0, "name": "F\u00e9nyes F\u00fcrd\u0151 \u00e9s Camping", "town": "Tata", "cat": 3, "catWidth": 48, "price": "21 \u20ac", "rtg": 3.0, "rtgCount": 1, "rtgWidth": 48, "img": "//images-camping.info/CampsiteImages/15539_Thumbnail.jpg", "url": "/ungarn/mitteltransdanubien/f%c3%a9nyes-f%c3%bcrd%c5%91-%c3%a9s-camping-20299", "affil": [], "prem": false, "tag": ""}, "20312": {"id": 20312, "lat": 47.68027, "lng": 19.08305, "p": 0, "name": "Pap-Sziget Camping", "town": "Szentendre", "cat": 3, "catWidth": 48, "price": "", "rtg": 4.38, "rtgCount": 13, "rtgWidth": 71, "img": "//images-camping.info/CampsiteImages/219787_Thumbnail.jpg", "url": "/ungarn/mittelungarn/pap-sziget-camping-20312", "affil": [], "prem": false, "tag": ""}, "20344": {"id": 20344, "lat": 47.68032, "lng": 17.60728, "p": 0, "name": "T\u00f3part Camping", "town": "Gy\u0151r", "cat": 3, "catWidth": 48, "price": "14 \u20ac", "rtg": 3.5, "rtgCount": 6, "rtgWidth": 56, "img": "//images-camping.info/CampsiteImages/165925_Thumbnail.jpg", "url": "/ungarn/westtransdanubien/t%c3%b3part-camping-20344", "affil": [], "prem": false, "tag": ""}, "20325": {"id": 20325, "lat": 47.72472, "lng": 18.14583, "p": 0, "name": "Wf Parc de Loisirs", "town": "Kom\u00e1rom", "cat": 3, "catWidth": 48, "price": "17.50 \u20ac", "rtg": 4.75, "rtgCount": 4, "rtgWidth": 74, "img": "//images-camping.info/CampsiteImages/15615_Thumbnail.jpg", "url": "/ungarn/mitteltransdanubien/wf-parc-de-loisirs-20325", "affil": [], "prem": false, "tag": ""}, "20429": {"id": 20429, "lat": 47.72551, "lng": 17.71326, "p": 0, "name": "Campingplatz Pihen\u00f6", "town": "Gy\u0151r", "cat": 2, "catWidth": 32, "price": "15.17 \u20ac", "rtg": 2.83, "rtgCount": 6, "rtgWidth": 42, "img": "//images-camping.info/CampsiteImages/15770_Thumbnail.jpg", "url": "/ungarn/westtransdanubien/campingplatz-pihen%c3%b6-20429", "affil": [], "prem": false, "tag": ""}, "20304": {"id": 20304, "lat": 47.74305, "lng": 18.13361, "p": 0, "name": "Juno Camping", "town": "Kom\u00e1rom", "cat": 3, "catWidth": 48, "price": "14.20 \u20ac", "rtg": 3.0, "rtgCount": 1, "rtgWidth": 48, "img": "//images-camping.info/CampsiteImages/15559_Thumbnail.jpg", "url": "/ungarn/mitteltransdanubien/juno-camping-20304", "affil": [], "prem": false, "tag": ""}, "20373": {"id": 20373, "lat": 47.74416, "lng": 18.11805, "p": 0, "name": "Therm\u00e1l Camping", "town": "Kom\u00e1rom", "cat": null, "catWidth": 0, "price": "", "rtg": 3.0, "rtgCount": 5, "rtgWidth": 48, "img": "", "url": "/ungarn/mitteltransdanubien/therm%c3%a1l-camping-20373", "affil": [], "prem": false, "tag": ""}, "20398": {"id": 20398, "lat": 47.74417, "lng": 18.11778, "p": 0, "name": "Solaris Camping", "town": "Kom\u00e1rom", "cat": null, "catWidth": 0, "price": "25 \u20ac", "rtg": 3.2, "rtgCount": 5, "rtgWidth": 53, "img": "//images-camping.info/CampsiteImages/15738_Thumbnail.jpg", "url": "/ungarn/mitteltransdanubien/solaris-camping-20398", "affil": [], "prem": false, "tag": ""}, "20357": {"id": 20357, "lat": 47.74472, "lng": 18.40277, "p": 0, "name": "\u00c9den Camping", "town": "Neszm\u00e9ly", "cat": null, "catWidth": 0, "price": "20.94 \u20ac", "rtg": 5.0, "rtgCount": 1, "rtgWidth": 80, "img": "//images-camping.info/CampsiteImages/31441_Thumbnail.jpg", "url": "/ungarn/mitteltransdanubien/%c3%a9den-camping-20357", "affil": [{"url": "//images-camping.info/_generated/affiliate/02-vde-logo-with-caption-web-80px.png", "title": "Vacansoleil", "nofollow": "", "deeplink": "http://www.vacansoleil.de/camping/info/ungarn-donautal/neszmely/campingplatz-eden-neszmely/VDE/3/2422000/"}], "prem": false, "tag": ""}, "27114": {"id": 27114, "lat": 47.75123, "lng": 19.08046, "p": 0, "name": "Danube Camping", "town": "Tahitotfalu", "cat": null, "catWidth": 0, "price": "16 \u20ac", "rtg": null, "rtgCount": 0, "rtgWidth": 0, "img": "//images-camping.info/CampsiteImages/228168_Thumbnail.jpg", "url": "/ungarn/mittelungarn/danube-camping-27114", "affil": [], "prem": false, "tag": ""}, "25651": {"id": 25651, "lat": 47.75944, "lng": 19.54583, "p": 0, "name": "HelloHalloPark", "town": "Erd\u0151tarcsa", "cat": 4, "catWidth": 64, "price": "18.50 \u20ac", "rtg": null, "rtgCount": 0, "rtgWidth": 0, "img": "//images-camping.info/CampsiteImages/185387_Thumbnail.jpg", "url": "/ungarn/nordungarn/hellohallopark-25651", "affil": [], "prem": false, "tag": ""}, "20390": {"id": 20390, "lat": 47.76638, "lng": 18.91527, "p": 0, "name": "D\u00f6m\u00f6s Camping", "town": "D\u00f6m\u00f6s", "cat": 3, "catWidth": 48, "price": "17 \u20ac", "rtg": 4.33, "rtgCount": 6, "rtgWidth": 70, "img": "//images-camping.info/CampsiteImages/118171_Thumbnail.jpg", "url": "/ungarn/mitteltransdanubien/d%c3%b6m%c3%b6s-camping-20390", "affil": [], "prem": false, "tag": ""}, "20297": {"id": 20297, "lat": 47.76944, "lng": 19.10361, "p": 0, "name": "Duna Camping \u00e9s Panzi\u00f3", "town": "Tahit\u00f3tfalu", "cat": 3, "catWidth": 48, "price": "", "rtg": null, "rtgCount": 0, "rtgWidth": 0, "img": "//images-camping.info/CampsiteImages/15535_Thumbnail.jpg", "url": "/ungarn/mittelungarn/duna-camping-%c3%a9s-panzi%c3%b3-20297", "affil": [], "prem": false, "tag": ""}, "20402": {"id": 20402, "lat": 47.78712, "lng": 18.95905, "p": 0, "name": "Tavir\u00f3zsa Fogad\u00f3 Camping", "town": "Nagymaros", "cat": null, "catWidth": 0, "price": "", "rtg": null, "rtgCount": 0, "rtgWidth": 0, "img": "", "url": "/ungarn/mitteltransdanubien/tavir%c3%b3zsa-fogad%c3%b3-camping-20402", "affil": [], "prem": false, "tag": ""}, "20301": {"id": 20301, "lat": 47.79, "lng": 18.73166, "p": 0, "name": "Gran Camping Pansion und Jugendherberge", "town": "Esztergom", "cat": 3, "catWidth": 48, "price": "17 \u20ac", "rtg": 3.25, "rtgCount": 8, "rtgWidth": 54, "img": "//images-camping.info/CampsiteImages/15549_Thumbnail.jpg", "url": "/ungarn/mitteltransdanubien/gran-camping-pansion-und-jugendherberge-20301", "affil": [{"url": "//images-camping.info/_generated/affiliate/campcard_dreh2017.png", "title": "Zur ADAC Campingplatz-Beschreibung mit ADAC CampCard-Preis, G\u00fcltigkeitszeiten und Vorteilsangeboten", "nofollow": "", "deeplink": "https://campingfuehrer.adac.de/campingfuehrer/ungarn-ungarn-ohne-plattenseegebiet-gran-camping-hu155.php"}], "prem": false, "tag": ""}, "20384": {"id": 20384, "lat": 47.79028, "lng": 18.95167, "p": 0, "name": "S\u00f3lyomszigeti Kemping \u00e9s \u00dcd\u00fcl\u0151h\u00e1z", "town": "Nagymaros", "cat": null, "catWidth": 0, "price": "", "rtg": null, "rtgCount": 0, "rtgWidth": 0, "img": "", "url": "/ungarn/mitteltransdanubien/s%c3%b3lyomszigeti-kemping-%c3%a9s-%c3%bcd%c3%bcl%c5%91h%c3%a1z-20384", "affil": [], "prem": false, "tag": ""}, "26023": {"id": 26023, "lat": 47.79454, "lng": 16.91339, "p": 0, "name": "Campingplatz am Zicksee", "town": "St. Andr\u00e4 am Zicksee", "cat": null, "catWidth": 0, "price": "21.40 \u20ac", "rtg": 4.25, "rtgCount": 12, "rtgWidth": 70, "img": "//images-camping.info/CampsiteImages/137561_Thumbnail.jpg", "url": "/%c3%b6sterreich/burgenland/campingplatz-am-zicksee-26023", "affil": [], "prem": false, "tag": ""}, "22507": {"id": 22507, "lat": 47.8, "lng": 18.70417, "p": 0, "name": "Autocamping Vadas", "town": "Sturovo", "cat": null, "catWidth": 0, "price": "", "rtg": 1.25, "rtgCount": 4, "rtgWidth": 22, "img": "", "url": "/slowakei/slowakei-west/autocamping-vadas-22507", "affil": [], "prem": false, "tag": ""}, "25934": {"id": 25934, "lat": 47.81645, "lng": 18.85984, "p": 0, "name": "Ipolykapu Kemping", "town": "Szob", "cat": null, "catWidth": 0, "price": "", "rtg": 5.0, "rtgCount": 1, "rtgWidth": 80, "img": "//images-camping.info/CampsiteImages/219290_Thumbnail.jpg", "url": "/ungarn/mittelungarn/ipolykapu-kemping-25934", "affil": [], "prem": false, "tag": ""}, "26463": {"id": 26463, "lat": 47.83427, "lng": 17.51497, "p": 0, "name": "Part Camping", "town": "\u00c1sv\u00e1nyr\u00e1r\u00f3", "cat": null, "catWidth": 0, "price": "18 \u20ac", "rtg": null, "rtgCount": 0, "rtgWidth": 0, "img": "//images-camping.info/CampsiteImages/172867_Thumbnail.jpg", "url": "/ungarn/westtransdanubien/part-camping-26463", "affil": [], "prem": false, "tag": ""}, "25792": {"id": 25792, "lat": 47.84225, "lng": 17.28597, "p": 0, "name": "HAL\u00c1SZKERT VEND\u00c9GL\u0150 CAMPING", "town": "Mosonmagyar\u00f3v\u00e1r", "cat": null, "catWidth": 0, "price": "18 \u20ac", "rtg": null, "rtgCount": 0, "rtgWidth": 0, "img": "//images-camping.info/CampsiteImages/221429_Thumbnail.jpg", "url": "/ungarn/westtransdanubien/hal%c3%a1szkert-vend%c3%a9gl%c5%91-camping-25792", "affil": [], "prem": false, "tag": ""}, "20343": {"id": 20343, "lat": 47.84436, "lng": 19.95858, "p": 0, "name": "M\u00e1tra Kemping S\u00e1st\u00f3", "town": "M\u00e1traf\u00fcred - S\u00e1st\u00f3", "cat": 4, "catWidth": 64, "price": "18 \u20ac", "rtg": 5.0, "rtgCount": 3, "rtgWidth": 80, "img": "//images-camping.info/CampsiteImages/15667_Thumbnail.jpg", "url": "/ungarn/nordungarn/m%c3%a1tra-kemping-s%c3%a1st%c3%b3-20343", "affil": [{"url": "//images-camping.info/_generated/affiliate/cca-acsi-logo-resultspage39.png", "title": "CampingCard ACSI - bis zu 50 % Rabatt", "nofollow": "", "deeplink": "http://www.campingcard.com/de/ungarn/heves/matrafured/matra-kemping-sasto-104564/"}], "prem": false, "tag": ""}, "25705": {"id": 25705, "lat": 47.85499, "lng": 20.32801, "p": 0, "name": "Therm\u00e1l Camping Egerszal\u00f3k", "town": "Egerszal\u00f3k", "cat": null, "catWidth": 0, "price": "", "rtg": 4.0, "rtgCount": 1, "rtgWidth": 64, "img": "", "url": "/ungarn/mittelungarn/therm%c3%a1l-camping-egerszal%c3%b3k-25705", "affil": [], "prem": false, "tag": ""}, "24827": {"id": 24827, "lat": 47.86154, "lng": 17.45864, "p": 0, "name": "Lip\u00f3t Thermalbath and Spa & Camping", "town": "Lip\u00f3t", "cat": 4, "catWidth": 64, "price": "43 \u20ac", "rtg": 3.88, "rtgCount": 8, "rtgWidth": 59, "img": "//images-camping.info/CampsiteImages/86902_Thumbnail.jpg", "url": "/ungarn/westtransdanubien/lip%c3%b3t-thermalbath-and-spa-camping-24827", "affil": [], "prem": false, "tag": ""}, "23754": {"id": 23754, "lat": 47.87685, "lng": 17.27867, "p": 0, "name": "AQUA Hotel Term\u00e1l &Family Resort & Kemping", "town": "Mosonmagyar\u00f3v\u00e1r", "cat": null, "catWidth": 0, "price": "", "rtg": 3.0, "rtgCount": 3, "rtgWidth": 48, "img": "//images-camping.info/CampsiteImages/117861_Thumbnail.jpg", "url": "/ungarn/westtransdanubien/aqua-hotel-term%c3%a1l-family-resort-kemping-23754", "affil": [], "prem": false, "tag": ""}, "27033": {"id": 27033, "lat": 47.88745, "lng": 19.30091, "p": 0, "name": "Molecaten Park Legend Estate", "town": "Legend", "cat": null, "catWidth": 0, "price": "", "rtg": null, "rtgCount": 0, "rtgWidth": 0, "img": "//images-camping.info/CampsiteImages/218616_Thumbnail.jpg", "url": "/ungarn/nordungarn/molecaten-park-legend-estate-27033", "affil": [], "prem": false, "tag": ""}, "20430": {"id": 20430, "lat": 47.89166, "lng": 17.20361, "p": 0, "name": "Hel\u00e9na Campingpark", "town": "Lev\u00e9l", "cat": null, "catWidth": 0, "price": "", "rtg": 3.0, "rtgCount": 1, "rtgWidth": 48, "img": "//images-camping.info/CampsiteImages/15773_Thumbnail.jpg", "url": "/ungarn/westtransdanubien/hel%c3%a9na-campingpark-20430", "affil": [], "prem": false, "tag": ""}, "27171": {"id": 27171, "lat": 47.8936, "lng": 20.3587, "p": 0, "name": "Tulipan Kemping\"", "town": "Eger", "cat": null, "catWidth": 0, "price": "", "rtg": 4.0, "rtgCount": 2, "rtgWidth": 64, "img": "//images-camping.info/CampsiteImages/233507_Thumbnail.jpg", "url": "/ungarn/nordungarn/tulipan-kemping-27171", "affil": [], "prem": false, "tag": ""}, "20434": {"id": 20434, "lat": 47.92416, "lng": 20.02611, "p": 0, "name": "Campingplatz Tura", "town": "Par\u00e1d", "cat": 3, "catWidth": 48, "price": "", "rtg": 3.0, "rtgCount": 1, "rtgWidth": 48, "img": "//images-camping.info/CampsiteImages/15780_Thumbnail.jpg", "url": "/ungarn/nordungarn/campingplatz-tura-20434", "affil": [], "prem": false, "tag": ""}, "23880": {"id": 23880, "lat": 47.93854, "lng": 20.1939, "p": 0, "name": "V\u00e1r Camping", "town": "Sirok", "cat": 3, "catWidth": 48, "price": "9.40 \u20ac", "rtg": 5.0, "rtgCount": 2, "rtgWidth": 80, "img": "//images-camping.info/CampsiteImages/49211_Thumbnail.jpg", "url": "/ungarn/nordungarn/v%c3%a1r-camping-23880", "affil": [], "prem": false, "tag": ""}, "20336": {"id": 20336, "lat": 47.9482, "lng": 19.03064, "p": 0, "name": "Di\u00f3sjen\u0151i Camping \u00e9s Fah\u00e1zak", "town": "Di\u00f3sjen\u0151", "cat": 2, "catWidth": 32, "price": "13 \u20ac", "rtg": null, "rtgCount": 0, "rtgWidth": 0, "img": "//images-camping.info/CampsiteImages/15642_Thumbnail.jpg", "url": "/ungarn/nordungarn/di%c3%b3sjen%c5%91i-camping-%c3%a9s-fah%c3%a1zak-20336", "affil": [], "prem": false, "tag": ""}, "20327": {"id": 20327, "lat": 47.9901, "lng": 20.32779, "p": 0, "name": "\u00d6ko-Park Panzi\u00f3 - Kemping \u00e9s Kalandpark", "town": "Eger - Szarvask\u0151", "cat": 3, "catWidth": 48, "price": "20.70 \u20ac", "rtg": 4.0, "rtgCount": 1, "rtgWidth": 64, "img": "//images-camping.info/CampsiteImages/46041_Thumbnail.jpg", "url": "/ungarn/nordungarn/%c3%b6ko-park-panzi%c3%b3-kemping-%c3%a9s-kalandpark-20327", "affil": [], "prem": false, "tag": ""}, "20387": {"id": 20387, "lat": 48.0187, "lng": 19.0909, "p": 0, "name": "Szent Krist\u00f3f Motel \u00e9s Kemping", "town": "Nagyoroszi", "cat": null, "catWidth": 0, "price": "", "rtg": null, "rtgCount": 0, "rtgWidth": 0, "img": "", "url": "/ungarn/mitteltransdanubien/szent-krist%c3%b3f-motel-%c3%a9s-kemping-20387", "affil": [], "prem": false, "tag": ""}, "20370": {"id": 20370, "lat": 48.03723, "lng": 18.91404, "p": 0, "name": "Szalamandra Camping", "town": "Kemence", "cat": null, "catWidth": 0, "price": "", "rtg": null, "rtgCount": 0, "rtgWidth": 0, "img": "", "url": "/ungarn/mitteltransdanubien/szalamandra-camping-20370", "affil": [], "prem": false, "tag": ""}, "26891": {"id": 26891, "lat": 48.09803, "lng": 20.3843, "p": 0, "name": "Szilvasvarad Camping & Apartman", "town": "Szilvasvarad", "cat": null, "catWidth": 0, "price": "25 \u20ac", "rtg": 5.0, "rtgCount": 1, "rtgWidth": 80, "img": "//images-camping.info/CampsiteImages/206804_Thumbnail.jpg", "url": "/ungarn/nordungarn/szilvasvarad-camping-apartman-26891", "affil": [], "prem": false, "tag": ""}, "24613": {"id": 24613, "lat": 48.13413, "lng": 17.78291, "p": 0, "name": "ATC Term\u00e1lne k\u00fapalisko", "town": "Diakovce", "cat": null, "catWidth": 0, "price": "", "rtg": null, "rtgCount": 0, "rtgWidth": 0, "img": "", "url": "/slowakei/slowakei-west/atc-term%c3%a1lne-k%c3%bapalisko-24613", "affil": [], "prem": false, "tag": ""}, "16457": {"id": 16457, "lat": 48.18833, "lng": 17.185, "p": 0, "name": "Are\u00e1l Zdravia Zlat\u00e9 Piesky", "town": "Bratislava", "cat": 1, "catWidth": 16, "price": "19.50 \u20ac", "rtg": 2.62, "rtgCount": 21, "rtgWidth": 40, "img": "//images-camping.info/CampsiteImages/6905_Thumbnail.jpg", "url": "/slowakei/slowakei-west/are%c3%a1l-zdravia-zlat%c3%a9-piesky-16457", "affil": [], "prem": false, "tag": ""}, "22506": {"id": 22506, "lat": 48.19, "lng": 18.66111, "p": 0, "name": "Autocamping Margita-Ilona", "town": "Kalinciakovo", "cat": null, "catWidth": 0, "price": "", "rtg": 2.75, "rtgCount": 4, "rtgWidth": 42, "img": "//images-camping.info/CampsiteImages/138668_Thumbnail.jpg", "url": "/slowakei/slowakei-west/autocamping-margita-ilona-22506", "affil": [], "prem": false, "tag": ""}, "16456": {"id": 16456, "lat": 48.21416, "lng": 17.41027, "p": 0, "name": "Stredisko Slnecne Jazera", "town": "Senec", "cat": null, "catWidth": 0, "price": "16 \u20ac", "rtg": 3.67, "rtgCount": 3, "rtgWidth": 57, "img": "//images-camping.info/CampsiteImages/6902_Thumbnail.jpg", "url": "/slowakei/slowakei-west/stredisko-slnecne-jazera-16456", "affil": [], "prem": false, "tag": ""}, "23836": {"id": 23836, "lat": 48.2249, "lng": 20.26317, "p": 0, "name": "Strandf\u00fcrd\u00f6 Camping", "town": "\u00d3zd", "cat": null, "catWidth": 0, "price": "", "rtg": null, "rtgCount": 0, "rtgWidth": 0, "img": "", "url": "/ungarn/nordungarn/strandf%c3%bcrd%c3%b6-camping-23836", "affil": [], "prem": false, "tag": ""}, "25142": {"id": 25142, "lat": 48.24188, "lng": 19.24993, "p": 0, "name": "Camping Slovakia", "town": "\u010cebovce", "cat": 3, "catWidth": 48, "price": "20 \u20ac", "rtg": null, "rtgCount": 0, "rtgWidth": 0, "img": "//images-camping.info/CampsiteImages/108711_Thumbnail.jpg", "url": "/slowakei/slowakei-west/camping-slovakia-25142", "affil": [], "prem": false, "tag": ""}, "23446": {"id": 23446, "lat": 48.25096, "lng": 19.21302, "p": 0, "name": "Camping Lazy", "town": "Cerovo", "cat": 1, "catWidth": 16, "price": "17.80 \u20ac", "rtg": 5.0, "rtgCount": 13, "rtgWidth": 80, "img": "//images-camping.info/CampsiteImages/167287_Thumbnail.jpg", "url": "/slowakei/slowakei-west/camping-lazy-23446", "affil": [], "prem": false, "tag": ""}, "24037": {"id": 24037, "lat": 48.39218, "lng": 20.02502, "p": 0, "name": "Camp Ormet", "town": "Rimavsk\u00e1 Sobota", "cat": null, "catWidth": 0, "price": "", "rtg": 5.0, "rtgCount": 2, "rtgWidth": 80, "img": "", "url": "/slowakei/slowakei-ost/camp-ormet-24037", "affil": [], "prem": false, "tag": ""}, "22044": {"id": 22044, "lat": 48.39833, "lng": 18.20611, "p": 0, "name": "Autocamping Jelenec", "town": "Jelenec", "cat": null, "catWidth": 0, "price": "8.50 \u20ac", "rtg": 1.0, "rtgCount": 1, "rtgWidth": 16, "img": "//images-camping.info/CampsiteImages/17882_Thumbnail.jpg", "url": "/slowakei/slowakei-west/autocamping-jelenec-22044", "affil": [], "prem": false, "tag": ""}, "24449": {"id": 24449, "lat": 48.40038, "lng": 17.16588, "p": 0, "name": "Camping park Karpaty", "town": "Kuchyna", "cat": 3, "catWidth": 48, "price": "17.70 \u20ac", "rtg": 4.67, "rtgCount": 6, "rtgWidth": 73, "img": "//images-camping.info/CampsiteImages/112372_Thumbnail.jpg", "url": "/slowakei/slowakei-west/camping-park-karpaty-24449", "affil": [], "prem": false, "tag": ""}, "22510": {"id": 22510, "lat": 48.40583, "lng": 20.31111, "p": 0, "name": "Autocamping Tornala-Kralik", "town": "Tornala-Kralak", "cat": null, "catWidth": 0, "price": "", "rtg": 3.0, "rtgCount": 1, "rtgWidth": 48, "img": "", "url": "/slowakei/slowakei-west/autocamping-tornala-kralik-22510", "affil": [], "prem": false, "tag": ""}, "22509": {"id": 22509, "lat": 48.44444, "lng": 19.55889, "p": 0, "name": "Autocamping Divin", "town": "Divin", "cat": null, "catWidth": 0, "price": "", "rtg": null, "rtgCount": 0, "rtgWidth": 0, "img": "", "url": "/slowakei/slowakei-west/autocamping-divin-22509", "affil": [], "prem": false, "tag": ""}, "26580": {"id": 26580, "lat": 48.4561, "lng": 18.8515, "p": 0, "name": "Scout camp Hodru\u0161a", "town": "Hodru\u0161a-H\u00e1mre", "cat": null, "catWidth": 0, "price": "", "rtg": null, "rtgCount": 0, "rtgWidth": 0, "img": "//images-camping.info/CampsiteImages/183039_Thumbnail.jpg", "url": "/slowakei/slowakei-west/scout-camp-hodru%c5%a1a-26580", "affil": [], "prem": false, "tag": ""}, "27182": {"id": 27182, "lat": 48.45639, "lng": 19.24388, "p": 0, "name": "Naturisten FKK Camping Dobr\u00e1 L\u00faka", "town": "Pliesovce", "cat": null, "catWidth": 0, "price": "", "rtg": null, "rtgCount": 0, "rtgWidth": 0, "img": "", "url": "/slowakei/slowakei-west/naturisten-fkk-camping-dobr%c3%a1-l%c3%baka-27182", "affil": [], "prem": false, "tag": ""}, "26649": {"id": 26649, "lat": 48.46582, "lng": 18.84664, "p": 0, "name": "Hodru\u0161a Kemp Konibar", "town": "Hodru\u0161a H\u00e1mre", "cat": 5, "catWidth": 80, "price": "12.90 \u20ac", "rtg": 5.0, "rtgCount": 1, "rtgWidth": 80, "img": "//images-camping.info/CampsiteImages/188932_Thumbnail.jpg", "url": "/slowakei/slowakei-west/hodru%c5%a1a-kemp-konibar-26649", "affil": [], "prem": false, "tag": ""}, "26420": {"id": 26420, "lat": 48.49147, "lng": 16.95587, "p": 0, "name": "ATC Rudava", "town": "Male Levare", "cat": null, "catWidth": 0, "price": "12.50 \u20ac", "rtg": 4.0, "rtgCount": 2, "rtgWidth": 64, "img": "//images-camping.info/CampsiteImages/170150_Thumbnail.jpg", "url": "/slowakei/slowakei-west/atc-rudava-26420", "affil": [], "prem": false, "tag": ""}, "16455": {"id": 16455, "lat": 48.56333, "lng": 19.13778, "p": 0, "name": "Autocamping Neresnica", "town": "Zvolen", "cat": null, "catWidth": 0, "price": "", "rtg": 3.0, "rtgCount": 2, "rtgWidth": 48, "img": "", "url": "/slowakei/slowakei-west/autocamping-neresnica-16455", "affil": [], "prem": false, "tag": ""}, "16465": {"id": 16465, "lat": 48.57806, "lng": 17.82444, "p": 0, "name": "Camping Lodenica", "town": "Pie\u0161tany", "cat": null, "catWidth": 0, "price": "", "rtg": null, "rtgCount": 0, "rtgWidth": 0, "img": "//images-camping.info/CampsiteImages/169483_Thumbnail.jpg", "url": "/slowakei/slowakei-west/camping-lodenica-16465", "affil": [], "prem": false, "tag": ""},